"Row.names","iso3","iso2","admin1_id","admin2_id","iu_id","location","site_id","longitude","latitude","georeliability","location_type","survey_type","year","age_start","age_end","hk_examined","hk_positive","hk_perc_highinfection","hk_perc_moderateinfection","asc_examined","asc_positive","asc_perc_highinfection","asc_perc_moderateinfection","tt_examined","tt_positive","tt_perc_highinfection","tt_perc_moderateinfection","quality","sn","hk_prevalence","asc_prevalence","tt_prevalence","sth_prevalence","shortest","id","src","dst","identifier","improved_sewer","unpiped_sewer","surface_sewer","piped_sewer","unimproved_sewer","improved_water","unpiped_water","surface_water","piped_water","unimproved_water"
"1","BDI","BI",706,6389,6389,"bitare",NA,29.333333,-2.883333,1,"school","mapping",2014,12,14,50,2,0,0,50,3,0,0,50,0,0,0,1,23394,0.04,0.06,0,0.0920754716981132,10367.6157741155,0,0,0,1,41.7309710883244,40.4491451349232,0.954146211195047,1.2818248185287,57.3148834937409,68.6290420286121,33.4779647447534,1.3858951366231,35.1510778520626,29.9850624178239
"10","BDI","BI",705,6387,6387,"busumanyi",10314,30.6339,-3.0634,3,"","",2014,NA,NA,50,6,NA,NA,50,0,NA,NA,50,0,NA,NA,1,2185,0.12,0,0,0.113207547169811,0,9,9,8,8,58.1293282025619,57.8424008977291,0.650576469281117,0.286928964681219,41.2200970039834,85.4717560164953,79.6717816452831,1.71663301346278,5.79997422941181,12.8116115010216
"100","BDI","BI",709,6398,6398,"karehe",NA,29.73793,-3.1775199,3,"school","sentinel site",2009,6,14,301,23,0,0,301,35,0,0.0166,301,50,0,0,1,23451,0.0764119601328903,0.116279069767442,0.166112956810631,0.301307858968533,0,99,99,96,60,36.085260309065,35.6572662801918,0.424380169897455,0.427993241438076,63.4903595937629,98.0903148872972,92.3643471076072,0.0240232703652666,5.72596541142128,1.88566552620837
"101","BDI","BI",707,6392,6392,"karemba",NA,30.0076,-3.7068,1,"school","mapping",2014,13,14,50,4,0,0,50,23,0,0.02,50,5,0,0,1,23414,0.08,0.46,0.1,0.521584905660377,8008.51606502314,100,100,100,61,20.6201616708084,19.184916346547,3.96909578183227,1.43524573241494,75.4107391423789,86.2098338000066,18.1308394189233,1.86841233679624,68.0789933383675,11.9217551325132
"102","BDI","BI",716,6416,6416,"karinzi",NA,29.85430625,-3.0373625,4,"school","mapping",2014,13,14,50,2,0,0,50,5,0,0,50,2,0,0,1,23603,0.04,0.1,0.04,0.160905660377358,2634.48935341691,101,101,101,62,19.3822636968637,19.2070100976326,0.892600296085171,0.175254608682298,79.7251362788539,97.3708741125398,82.8434519267911,0.0397199782526639,14.5274225899028,2.58940855917368
"103","BDI","BI",717,6419,6419,"karuyigi",NA,30.2483881,-3.4750027,3,"school","mapping",2014,12,16,50,0,0,0,50,1,0,0,50,0,0,0,1,23624,0,0.02,0,0.0188679245283018,0,102,102,312,63,73.5589951540574,62.0186608154303,3.66428532162151,11.5403337696304,22.7767205109073,61.7157359128903,4.82726552240206,4.15707158350394,56.8884726262949,34.1271916772248
"104","BDI","BI",709,6397,6397,"kayanza ii",NA,29.6321188,-2.9297132,3,"school","mapping",2014,12,16,50,0,0,0,50,6,0,0.04,50,1,0,0,1,23443,0,0.12,0.02,0.129811320754717,4866.37399556662,103,103,103,64,48.6961483572138,44.9445506902796,5.5193837352816,3.75159569180663,45.7844715345255,96.7470306747094,52.8421990514519,0.00369266631171939,43.9048337107237,3.24927723410898
"105","BDI","BI",713,6409,6409,"kayenzi",NA,30.3589,-2.89833,3,"","",2007,10,16,60,11,NA,NA,60,4,NA,NA,60,3,NA,NA,1,31272,0.183333333333333,0.0666666666666666,0.05,0.260272536687631,3170.62164705277,104,104,104,65,42.6455840065972,42.4721057743202,0.0951289457969434,0.173479529102756,57.2592872595515,89.4682895978985,78.5413192558102,3.01746602005177,10.926971442059,7.51424258521718
"106","BDI","BI",712,6405,6405,"kibogoye",10264,29.6041,-3.2177,1,"","",2014,NA,NA,50,0,NA,NA,50,13,NA,NA,50,0,NA,NA,1,18647,0,0.26,0,0.245283018867925,6252.03643702124,105,105,105,66,73.5975587836291,67.6219799598751,4.64783548747446,5.97558105656253,21.7546081584053,93.9399640929616,76.7798433585398,0.0082267937483559,17.160125589425,6.05180758985406
"107","BDI","BI",710,6399,6399,"kibonde",NA,30.1602,-2.4725,3,"school","mapping",2014,12,15,50,5,0,0,50,2,0,0,50,2,0,0,1,23459,0.1,0.04,0.04,0.160905660377358,0,106,106,107,67,67.2340479349122,66.6121424925623,5.32688873483638,0.621906364171837,27.4390625698247,74.7445840972433,7.20471286815294,24.3295540472513,67.5398717256297,0.92586214582961
"108","BDI","BI",710,6399,6399,"kibonde",10193,30.1602,-2.4725,3,"","",2014,NA,NA,50,4,NA,NA,50,1,NA,NA,50,2,NA,NA,1,2213,0.08,0.02,0.04,0.126852830188679,0,107,107,106,67,67.2340479349122,66.6121424925623,5.32688873483638,0.621906364171837,27.4390625698247,74.7445840972433,7.20471286815294,24.3295540472513,67.5398717256297,0.92586214582961
"109","BDI","BI",712,6405,6405,"kibumbu",NA,29.7583,-3.2179,1,"school","mapping",2014,12,16,50,2,0,0,50,19,0,0.02,50,1,0,0,1,23503,0.04,0.38,0.02,0.393116981132075,0,108,108,109,68,39.3523408925411,38.518110763103,1.16975823732248,0.834230927383825,59.4779019482663,99.0220731167102,91.7502098677429,0.00750833728259427,7.27186632112319,0.970416532110935
"11","BDI","BI",715,6412,6412,"butaha",NA,29.90111111,-2.874833333,3,"school","mapping",2016,12,15,50,0,0,0,50,6,0,0.04,49,10,0,0,1,23557,0,0.12,0.204081632653061,0.282633808240277,5007.46754506068,10,10,10,9,24.5717529991251,23.8165687881648,1.18375717992497,0.755185132830866,74.2444875907743,96.6231894777759,74.0859225900499,0.0255351370280418,22.5372687586914,3.35127232525774
"110","BDI","BI",712,6405,6405,"kibumbu",10265,29.7583,-3.2179,1,"","",2014,NA,NA,50,2,NA,NA,50,18,NA,NA,50,1,NA,NA,1,18645,0.04,0.36,0.02,0.375366037735849,0,109,109,108,68,39.3523408925411,38.518110763103,1.16975823732248,0.834230927383825,59.4779019482663,99.0220731167102,91.7502098677429,0.00750833728259427,7.27186632112319,0.970416532110935
"111","BDI","BI",711,6404,6404,"kiderege",NA,29.6725,-4.2695,3,"school","mapping",2014,12,16,50,4,0,0,50,1,0,0,50,0,0,0,1,23496,0.08,0.02,0,0.0928301886792452,0,110,110,111,69,86.571966414049,85.0988493716363,0.529414415691009,1.47311966736093,12.8986176609038,99.2052561620615,21.6369321184521,0.00110224247020994,77.5683282735137,0.793637731802515
"112","BDI","BI",711,6404,6404,"kiderege",10342,29.6725,-4.2695,3,"","",2014,NA,NA,50,1,NA,NA,50,1,NA,NA,50,0,NA,NA,1,18643,0.02,0.02,0,0.0373584905660377,0,111,111,110,69,86.571966414049,85.0988493716363,0.529414415691009,1.47311966736093,12.8986176609038,99.2052561620615,21.6369321184521,0.00110224247020994,77.5683282735137,0.793637731802515
"113","BDI","BI",708,6394,6394,"kigarama ii",NA,29.716667,-2.933333,1,"school","mapping",2014,12,14,50,0,0,0,50,7,0,0,50,0,0,0,1,23424,0,0.14,0,0.132075471698113,0,112,112,113,70,43.9437051674858,43.4105252657112,3.77294889284949,0.53317976977654,52.2833440037811,96.5113835603298,94.1605606562849,0.00273209017482904,2.35082308843152,3.485883146941
"114","BDI","BI",708,6394,6394,"kigarama ii",10166,29.716667,-2.933333,1,"","",2014,NA,NA,50,0,NA,NA,50,7,NA,NA,50,1,NA,NA,1,18584,0,0.14,0.02,0.148301886792453,0,113,113,112,70,43.9437051674858,43.4105252657112,3.77294889284949,0.53317976977654,52.2833440037811,96.5113835603298,94.1605606562849,0.00273209017482904,2.35082308843152,3.485883146941
"115","BDI","BI",710,6402,6402,"kigobe",NA,30.1231,-2.6833,1,"school","mapping",2014,13,14,50,2,0,0,50,14,0,0,50,6,0,0,1,23479,0.04,0.28,0.12,0.369569811320755,0,114,114,115,71,19.1478327840659,18.9795395916102,6.39041308893603,0.168292281690846,74.461753287858,98.8458148127336,76.4845405294251,0.0470339627556154,22.3612750939248,1.10715021589606
"116","BDI","BI",710,6402,6402,"kigobe",10376,30.1231,-2.6833,1,"","",2014,NA,NA,50,2,NA,NA,50,14,NA,NA,50,5,NA,NA,1,18628,0.04,0.28,0.1,0.356528301886792,0,115,115,114,71,19.1478327840659,18.9795395916102,6.39041308893603,0.168292281690846,74.461753287858,98.8458148127336,76.4845405294251,0.0470339627556154,22.3612750939248,1.10715021589606
"117","BDI","BI",713,6407,6407,"kigoganya",NA,30.2941,-2.8373,3,"school","mapping",2014,12,14,50,9,0,0,50,7,0,0,50,4,0,0,1,23515,0.18,0.14,0.08,0.331335849056604,0,116,116,117,72,63.7390695898142,57.9618143008065,16.1207927834197,5.77725557674976,20.1401401728714,99.1707966257146,68.998989436989,0.0616868905959683,30.171807388525,0.767516873087886
"118","BDI","BI",713,6407,6407,"kigoganya",10221,30.2941,-2.8373,3,"","",2014,NA,NA,50,10,NA,NA,50,7,NA,NA,50,4,NA,NA,1,2232,0.2,0.14,0.08,0.346264150943396,0,117,117,116,72,63.7390695898142,57.9618143008065,16.1207927834197,5.77725557674976,20.1401401728714,99.1707966257146,68.998989436989,0.0616868905959683,30.171807388525,0.767516873087886
"119","BDI","BI",703,6381,6381,"kinama iii",NA,29.3767699,-3.3334796,3,"school","mapping",2014,12,14,50,0,0,0,50,1,0,0,50,1,0,0,1,23259,0,0.02,0.02,0.0373584905660377,979.052790623546,118,118,118,73,81.3996720337589,54.9210334723705,4.89717266177661,26.4786384330539,13.7031550844896,99.8662686358428,0.78796590133578,0.0787791763231751,99.0783048528569,0.0549514947543565
"12","BDI","BI",717,6417,6417,"butezi",NA,30.182022,-3.3603962,1,"school","mapping",2014,12,15,50,1,0,0,50,28,0,0.02,50,7,0,0,1,23610,0.02,0.56,0.14,0.593554716981132,4799.66160264073,11,11,11,10,87.6867282426381,76.8076954101497,1.46644311807672,10.8790278036759,10.8468324937298,68.2489888962998,47.7044806307073,2.3644000703661,20.5445089498521,29.3866114981615
"120","BDI","BI",706,6389,6389,"kinga",NA,29.1230716,-2.8878427,2,"school","mapping",2014,12,14,50,1,0,0,50,11,0,0,50,5,0,0,1,23396,0.02,0.22,0.1,0.294377358490566,0,119,119,82,52,35.6153006447082,28.5611381627603,20.7833127771865,7.05416364172424,43.601384593392,96.9842965658145,0.229795337237446,1.59419355170699,96.7545006270119,1.42151064674737
"121","BDI","BI",706,6389,6389,"kinga",10282,29.1230716,-2.8878427,2,"","",2014,NA,NA,50,1,NA,NA,50,11,NA,NA,50,2,NA,NA,1,18560,0.02,0.22,0.04,0.251109433962264,0,120,120,82,52,35.6153006447082,28.5611381627603,20.7833127771865,7.05416364172424,43.601384593392,96.9842965658145,0.229795337237446,1.59419355170699,96.7545006270119,1.42151064674737
"122","BDI","BI",702,6378,6378,"kinonko",NA,29.4716,-3.5377,3,"school","mapping",2014,12,16,50,1,0,0,50,27,0,0.18,50,4,0,0,1,23236,0.02,0.54,0.08,0.552135849056604,2743.19419853427,121,121,121,74,44.9136368354857,32.7517029514892,1.07260008921992,12.1619359897763,54.0137615383254,50.1894655791755,29.8814667020069,15.0843500345867,20.3080003503746,34.7261835986276
"123","BDI","BI",707,6391,6391,"kirambi",NA,29.7553,-3.6292,1,"school","mapping",2014,13,14,50,4,0,0.02,50,19,0,0.02,50,3,0,0,1,23408,0.08,0.38,0.06,0.437569811320755,8966.55722417779,122,122,122,75,85.3922894635596,84.4234307434543,1.43972752598277,0.968858504784712,13.1679828960943,79.7139592317968,72.7494846925863,0.170659361604393,6.96447626260742,20.1153812239182
"124","BDI","BI",707,6393,6393,"kiranzira",NA,29.90945,-3.41934,1,"school","mapping",2014,13,14,50,2,0,0,50,15,0,0,50,1,0,0,1,23419,0.04,0.3,0.02,0.32211320754717,1337.01545000768,123,123,123,76,86.0943720405304,79.8186065667769,3.58772846881753,6.27576586724375,10.3178998757565,91.1582499960052,41.3157215336804,0.269355295203441,49.8425304147796,8.57239190721557
"125","BDI","BI",716,6416,6416,"kireka",NA,30.0876,-3.677,3,"school","mapping",2014,13,14,50,2,0,0,50,20,0,0,50,1,0,0,1,23604,0.04,0.4,0.02,0.410867924528302,0,124,124,125,77,18.4011366470405,17.8699442139262,0.978132620547224,0.531192046366944,80.6207325474633,66.3910184861658,47.4238625905737,23.0953386726695,18.967151008903,10.5136458147722
"126","BDI","BI",716,6416,6416,"kireka",10354,30.0876,-3.677,3,"","",2014,NA,NA,50,2,NA,NA,50,21,NA,NA,50,1,NA,NA,1,2247,0.04,0.42,0.02,0.428618867924528,0,125,125,124,77,18.4011366470405,17.8699442139262,0.978132620547224,0.531192046366944,80.6207325474633,66.3910184861658,47.4238625905737,23.0953386726695,18.967151008903,10.5136458147722
"127","BDI","BI",702,6378,6378,"kirombwe iii",10249,29.3675,-3.6227,3,"","",2014,NA,NA,50,2,NA,NA,50,19,NA,NA,50,18,NA,NA,1,2150,0.04,0.38,0.36,0.584030188679245,2456.42001637885,126,126,126,78,66.6613965543829,66.3731660803351,0.622088860450664,0.28822977959946,32.7165148583566,78.4094120008438,24.9967440393035,2.85644548059468,53.4126657980476,18.7341423983387
"128","BDI","BI",702,6378,6378,"kirundo",NA,29.3563904,-3.3846521,1,"school","mapping",2014,12,15,50,2,0,0,50,7,0,0,50,0,0,0,1,23237,0.04,0.14,0,0.164528301886792,1554.54188297311,127,127,127,79,92.9188619401064,43.6089847864698,6.45547303253342,49.3098770797604,0.625666315656786,99.4346210228401,1.22134206467918,0.501219825000771,98.2132767764225,0.0641603465575735
"129","BDI","BI",717,6417,6417,"kivumu",NA,30.1166667,-3.3983333,1,"school","mapping",2014,11,15,50,2,0,0,50,11,0,0,50,0,0,0,1,23611,0.04,0.22,0,0.236981132075472,5779.56128162445,128,128,128,80,50.5494680823017,50.160093612194,0.923300816145673,0.389372661360697,48.5272323309357,99.3435755391923,41.8940697206799,0.258339823672813,57.4495092442019,0.398082543036343
"13","BDI","BI",710,6401,6401,"butihinda",NA,30.1857,-2.6413,1,"school","mapping",2014,12,15,50,3,0,0,50,5,0,0,50,4,0,0,1,23472,0.06,0.1,0.08,0.209132075471698,0,12,12,13,11,0.89750834145241,0.481378519117648,2.76180304552702,0.416129832831391,96.3406874176433,95.8499697805795,95.6216555281061,0.00414870610134463,0.228308565738517,4.14588425568078
"130","BDI","BI",709,6398,6398,"kivumu i",NA,29.5175,-2.8905556,1,"school","mapping",2014,12,16,50,1,0,0,50,33,0,0.02,50,5,0,0,1,23454,0.02,0.66,0.1,0.660490566037736,0,129,129,130,81,5.1044503379468,4.98857712965189,1.60039753984309,0.115873267822814,93.2951511701251,92.5761795135818,44.5479433228551,1.21965263059251,48.0282333189191,6.2041671821086
"131","BDI","BI",709,6398,6398,"kivumu i",10321,29.5175,-2.8905556,1,"","",2014,NA,NA,50,1,NA,NA,50,32,NA,NA,50,5,NA,NA,1,18607,0.02,0.64,0.1,0.643849056603773,0,130,130,129,81,5.1044503379468,4.98857712965189,1.60039753984309,0.115873267822814,93.2951511701251,92.5761795135818,44.5479433228551,1.21965263059251,48.0282333189191,6.2041671821086
"132","BDI","BI",709,6396,6396,"kivuruga",NA,29.6492,-2.9699,1,"school","mapping",2014,12,14,50,3,0,0,50,29,0,0.04,50,5,0,0,1,23439,0.06,0.58,0.1,0.608188679245283,0,131,131,132,82,51.2274563567996,47.687560178476,1.92031253053805,3.53989809618255,46.8522286981452,97.4433481539714,86.2935753114988,0.00150795816770163,11.1497768273694,2.55514494254407
"133","BDI","BI",709,6396,6396,"kivuruga",10215,29.6492,-2.9699,1,"","",2014,NA,NA,50,3,NA,NA,50,29,NA,NA,50,4,NA,NA,1,18595,0.06,0.58,0.08,0.600739622641509,0,132,132,131,82,51.2274563567996,47.687560178476,1.92031253053805,3.53989809618255,46.8522286981452,97.4433481539714,86.2935753114988,0.00150795816770163,11.1497768273694,2.55514494254407
"134","BDI","BI",701,6375,6375,"kivyuka ii",NA,29.4509403,-3.0288458,1,"school","mapping",2014,12,15,50,5,0,0,50,6,0,0,50,0,0,0,1,23202,0.1,0.12,0,0.19622641509434,0,133,133,134,83,31.9926934632562,31.7567967740133,1.1248671999114,0.235897350227135,66.8824380261202,48.6466121476562,30.8699354236886,6.33811071035572,17.7766760163869,45.0152753252508
"135","BDI","BI",701,6375,6375,"kivyuka ii",10162,29.4509403,-3.0288458,1,"","",2014,NA,NA,50,5,NA,NA,50,5,NA,NA,50,0,NA,NA,1,2141,0.1,0.1,0,0.179245283018868,0,134,134,133,83,31.9926934632562,31.7567967740133,1.1248671999114,0.235897350227135,66.8824380261202,48.6466121476562,30.8699354236886,6.33811071035572,17.7766760163869,45.0152753252508
"136","BDI","BI",711,6403,6403,"kiyange ii",NA,29.1288889,-2.7158333,1,"school","mapping",2014,12,15,50,6,0,0,50,1,0,0,50,0,0,0,1,23484,0.12,0.02,0,0.129811320754717,4841.43641592035,135,135,135,84,74.5104854957052,74.3241913651304,2.92217789788636,0.186295265234894,22.5673371166272,84.1344112050583,17.8447810874677,7.84343819244291,66.2896339100095,8.02214977272897
"137","BDI","BI",710,6400,6400,"kiyanza",NA,30.1460157,-2.5051722,3,"school","mapping",2014,13,14,50,7,0,0,50,5,0,0.02,50,2,0,0,1,23463,0.14,0.1,0.04,0.242415094339623,0,136,136,137,85,58.6847774537725,58.321091103815,6.03281068862469,0.363689308235556,22.8720597675244,73.962216658105,6.04324697298596,12.5327849428331,67.9189677827206,1.09464766600965
"138","BDI","BI",710,6400,6400,"kiyanza",10276,30.1460157,-2.5051722,3,"","",2014,NA,NA,50,6,NA,NA,50,5,NA,NA,50,2,NA,NA,1,2217,0.12,0.1,0.04,0.22611320754717,0,137,137,136,85,58.6847774537725,58.321091103815,6.03281068862469,0.363689308235556,22.8720597675244,73.962216658105,6.04324697298596,12.5327849428331,67.9189677827206,1.09464766600965
"139","BDI","BI",709,6398,6398,"kiziba",NA,29.4922222,-3.0311111,2,"school","mapping",2014,13,14,50,2,0,0,50,35,0,0.22,50,8,0,0,1,23455,0.04,0.7,0.16,0.715169811320755,1436.4519916863,138,138,138,86,27.1061595001057,26.2448382104062,6.97222811837735,0.861320393817045,65.9216131809509,50.9147087367801,38.8005782700687,12.5408083706286,12.1141326988371,36.5444802817708
"14","BDI","BI",710,6401,6401,"butihinda",10305,30.1857,-2.6413,1,"","",2014,NA,NA,50,3,NA,NA,50,5,NA,NA,50,3,NA,NA,1,18623,0.06,0.1,0.06,0.193169811320755,0,13,13,12,11,0.89750834145241,0.481378519117648,2.76180304552702,0.416129832831391,96.3406874176433,95.8499697805795,95.6216555281061,0.00414870610134463,0.228308565738517,4.14588425568078
"140","BDI","BI",704,6385,6385,"kizuga",NA,29.54527778,-3.760277778,3,"school","mapping",2014,12,16,50,1,0,0,50,4,0,0,50,0,0,0,1,23346,0.02,0.08,0,0.0928301886792452,0,139,139,30,22,30.0100998477009,29.5412178355945,6.48691021344024,0.468881428197988,63.502989461204,95.5350464876021,63.3071257512407,0.127047332363532,32.2279199778065,4.33790601010998
"141","BDI","BI",704,6385,6385,"kizuga/nkizi",NA,29.54527778,-3.760277778,3,"school","sentinel site",2007,6,19,300,51,0,0.0033,300,143,0.0033,0.08,300,12,0,0,1,23347,0.17,0.476666666666667,0.04,0.550007547169811,0,140,140,30,22,27.4910991620012,27.102214491081,4.89840572915898,0.388885020697838,67.610494273592,93.9571419185848,66.4200462815896,0.487922272054746,27.5371010591154,5.55493325646192
"142","BDI","BI",704,6385,6385,"kizuga/nkizi",NA,29.54527778,-3.760277778,3,"school","sentinel site",2009,6,18,446,19,0,0,446,201,0,0.0157,446,19,0,0,1,23349,0.0426008968609865,0.45067264573991,0.0426008968609865,0.468376775828349,0,141,141,30,22,28.0222752529862,27.6276377723498,5.08516296082282,0.394636711236639,66.89256471026,93.9537537350884,64.1536214513466,0.32732343646156,29.8001329416782,5.71892220997767
"143","BDI","BI",704,6385,6385,"kizuga/nkizi",NA,29.54527778,-3.760277778,3,"school","sentinel site",2011,6,19,350,5,0,0,350,88,0,0.0514,350,9,0,0,1,23351,0.0142857142857142,0.251428571428571,0.0257142857142857,0.265185323725177,0,142,142,30,22,28.748991153548,28.3346062094503,5.67978313792831,0.414384896203807,65.571225692421,94.3875869873108,62.8218459521476,0.224731012638841,31.5657375750802,5.3876842575027
"144","BDI","BI",704,6385,6385,"kizuga/nkizi",NA,29.54527778,-3.760277778,3,"school","sentinel site",2010,5,18,454,3,0,0,454,87,0,0.011,454,7,0,0,1,23350,0.0066079295154185,0.191629955947136,0.0154185022026431,0.197502927592499,0,143,143,30,22,28.334331636727,27.9367899197006,5.38057101917812,0.397542443533391,66.2850977387825,94.0870649210821,63.3932261029975,0.271631855526009,30.6938354032881,5.64130648639585
"145","BDI","BI",704,6385,6385,"kizuga/nkizi",NA,29.54527778,-3.760277778,3,"school","sentinel site",2008,6,18,343,10,0,0,343,54,0.0029,0.0087,343,7,0,0,1,23348,0.0291545189504373,0.157434402332362,0.0204081632653061,0.187446127393037,0,144,144,30,22,27.6229527558804,27.2312007701184,4.80861313883707,0.391750946841241,67.5684343690756,93.878072986512,65.5945123105072,0.398826360198886,28.2835631016606,5.72309927059784
"146","BDI","BI",713,6408,6408,"kobero",NA,30.4103505,-2.664491,1,"school","mapping",2014,13,14,50,2,0,0,50,1,0,0,50,4,0,0,1,23519,0.04,0.02,0.08,0.126852830188679,12457.1826813112,145,145,145,87,40.935958190313,40.5670544464395,5.86331414262334,0.368904719353992,53.2007265686013,80.7190070694044,73.497298627172,3.7776573503211,7.22171182977302,15.5033339417813
"147","BDI","BI",707,6390,6390,"kwibuka",NA,29.9093794,-3.4073509,3,"school","mapping",2014,13,14,50,3,0,0,50,11,0,0.02,50,6,0,0,1,23400,0.06,0.22,0.12,0.334701886792453,1337.01545000768,146,146,146,88,84.5638229516494,80.1710459701087,3.22916518208141,4.39277854569283,12.2070108701737,87.8914415524115,52.2750587997246,0.326014776290374,35.6163843113893,11.7825420250813
"148","BDI","BI",703,6380,6380,"lumiere kinindo",10172,29.3513824,-3.4120317,3,"","",2014,NA,NA,50,0,NA,NA,50,0,NA,NA,50,0,NA,NA,1,18510,0,0,0,0,2780.31257866442,147,147,147,89,90.722110748291,37.952615737915,5.4568190574646,52.769495010376,3.82107102125883,99.1348686218262,2.54187214374542,0.821037322282791,96.5929946899414,0.0440938398241997
"149","BDI","BI",702,6378,6378,"magara ii",NA,29.317042,-3.7249768,1,"school","mapping",2014,12,15,50,0,0,0,50,3,0,0.02,50,0,0,0,1,23238,0,0.06,0,0.0566037735849056,0,148,148,149,90,16.4880249500275,16.2622575759888,19.1555564403534,0.225767411291599,64.3564147949219,92.0781440734863,6.80124825239182,1.7484365105629,85.2768974304199,6.17341566085815
"15","BDI","BI",709,6397,6397,"buziraguhindwa",10254,29.5733,-2.9652,3,"","",2014,NA,NA,50,0,NA,NA,50,0,NA,NA,50,0,NA,NA,1,2207,0,0,0,0,1891.01690854187,14,14,14,12,15.7642662221054,13.8185053114886,6.84420836638854,1.94576033957565,77.3915271723952,99.9007222562745,68.5968644180551,0.00268369450727274,31.3038599114647,0.096593103336146
"150","BDI","BI",702,6378,6378,"magara ii",10251,29.317042,-3.7249768,1,"","",2014,NA,NA,50,1,NA,NA,50,4,NA,NA,50,1,NA,NA,1,2153,0.02,0.08,0.02,0.109841509433962,0,149,149,148,90,16.4880249500275,16.2622575759888,19.1555564403534,0.225767411291599,64.3564147949219,92.0781440734863,6.80124825239182,1.7484365105629,85.2768974304199,6.17341566085815
"151","BDI","BI",715,6414,6414,"makaba",NA,29.82047222,-2.994388889,3,"school","mapping",2016,13,14,50,5,0,0,50,2,0,0,50,0,0,0,1,23581,0.1,0.04,0,0.128301886792453,3979.91096099041,150,150,150,91,19.3914307055694,19.188419283556,0.758969394843367,0.203012292870722,79.84959830898,98.9250316870371,92.9449324529147,0.274772142332178,5.98010246606696,0.800195579121703
"152","BDI","BI",707,6391,6391,"maramvya",NA,29.966667,-3.55,1,"school","mapping",2014,13,14,50,1,0,0,50,12,0,0,50,0,0,0,1,23410,0.02,0.24,0,0.240754716981132,4292.86232948697,151,151,151,92,2.30665356718521,1.66256270495658,14.9497561347034,0.644090876354814,82.7435875189299,73.7069641745475,33.9635476731575,0.209349678407625,39.7434158336578,26.0836879433057
"153","BDI","BI",702,6377,6377,"maramvya i",NA,29.3771856,-3.3927199,2,"school","mapping",2014,12,13,50,0,0,0,50,0,0,0,50,2,0,0,1,23231,0,0,0.04,0.0377358490566037,0,152,152,153,93,92.5755546196565,53.9842847039834,6.93293483051891,38.5912689414741,0.491510923884017,99.215537736583,2.62633852288224,0.313888053563107,96.5891975866124,0.470573407641035
"154","BDI","BI",702,6377,6377,"maramvya i",NA,29.3771856,-3.3927199,2,"school","sentinel site",2008,6,18,300,39,0,0,300,39,0,0,300,16,0,0,1,23228,0.13,0.13,0.0533333333333333,0.267422641509434,0,153,153,152,93,90.1205811787851,55.8348639514654,8.86170630452885,34.2857159382985,1.01771496235989,98.5379721741419,3.43429051444213,0.609768084490967,95.1036834917813,0.852259115177956
"155","BDI","BI",702,6377,6377,"maramvya i",NA,29.3771856,-3.3927199,2,"school","sentinel site",2009,6,14,331,31,0,0,331,8,0,0,331,34,0,0,1,23229,0.093655589123867,0.0241691842900302,0.102719033232628,0.19472631443741,0,154,154,152,93,90.5039757553264,56.0525774785392,8.59091759102221,34.4513990114765,0.905106385651192,98.7231514997507,2.9753026623108,0.521161278758589,95.7478526866004,0.755685896097808
"156","BDI","BI",702,6377,6377,"maramvya i",NA,29.3771856,-3.3927199,2,"school","sentinel site",2011,6,19,495,13,0,0,495,4,0,0,495,1,0,0,1,23230,0.0262626262626262,0.008080808080808,0.002020202020202,0.0340400577165019,0,155,155,152,93,91.2705810303334,55.6753333598114,8.01872147594834,35.5952460597044,0.710698645999482,98.9664883344992,2.58654676303216,0.412863819909476,96.3799420387643,0.620648402301847
"157","BDI","BI",708,6394,6394,"masabo",NA,30.066667,-3.133333,1,"school","mapping",2014,12,15,50,0,0,0,50,7,0,0,50,0,0,0,1,23425,0,0.14,0,0.132075471698113,6328.62494697892,156,156,156,94,88.9583101754843,88.6894027149308,1.86990221740193,0.268911215818433,9.17178719231887,68.1429240347788,62.4091824196651,16.4990352456118,5.73374433682161,15.358039059649
"158","BDI","BI",704,6384,6384,"matana",NA,29.6832329,-3.7676289,1,"school","mapping",2014,12,15,50,0,0,0,50,12,0,0.06,50,2,0,0,1,23327,0,0.24,0.04,0.255094339622641,3310.90682467681,157,157,157,95,98.3533839427283,80.4626171023817,1.33078370179797,17.8907682114726,0.315831464085401,90.4096136623242,16.2944916022922,0.0635710857675876,74.1151226853281,9.52681308660121
"159","BDI","BI",702,6379,6379,"mayuyu",NA,29.5176,-3.5791,3,"school","mapping",2014,12,15,50,0,0,0,50,5,0,0,50,0,0,0,1,23240,0,0.1,0,0.0943396226415094,4261.55599891368,158,158,158,96,65.1333118875426,62.9002075711689,1.55174774664411,2.23310475703245,33.3149396085639,77.9372109097802,41.1078677284148,4.24342807557512,36.829348039518,17.8193561756259
"16","BDI","BI",715,6414,6414,"bwiza bweranka",NA,29.884,-2.945111111,3,"school","mapping",2016,13,14,50,0,0,0,50,7,0,0,50,11,0,0.02,1,23579,0,0.14,0.22,0.310566037735849,3759.28279483114,15,15,15,13,19.1410644985345,18.5970150039063,14.6099111917154,0.54405010296144,66.2490238411623,93.4881665004599,89.8838127508647,0.0447982829963133,3.60435119783017,6.46703634249254
"160","BDI","BI",704,6383,6383,"mbiga",NA,29.6391667,-4.1008333,1,"school","mapping",2014,12,15,50,2,0,0,50,7,0,0,50,0,0,0,1,23276,0.04,0.14,0,0.164528301886792,0,159,159,160,97,69.0640270721622,68.764432049672,0.133407417350183,0.299601090234323,30.8025641442724,48.579346801259,35.4041068989178,44.0047688042259,13.1752375150557,7.41588593257321
"161","BDI","BI",704,6383,6383,"mbiga",10187,29.6391667,-4.1008333,1,"","",2014,NA,NA,50,0,NA,NA,50,0,NA,NA,50,0,NA,NA,1,2168,0,0,0,0,0,160,160,159,97,69.0640270721622,68.764432049672,0.133407417350183,0.299601090234323,30.8025641442724,48.579346801259,35.4041068989178,44.0047688042259,13.1752375150557,7.41588593257321
"162","BDI","BI",711,6404,6404,"mbizi ii",50199,29.7163889,-4.41,1,"","",2007,NA,NA,60,12,NA,NA,60,2,NA,NA,60,0,NA,NA,1,2133,0.2,0.0333333333333333,0,0.213836477987421,10756.9475469638,161,161,161,98,93.0503670503088,92.6473068470832,0.13528804635586,0.40306125044112,6.81434411791717,90.2020661069526,35.6731927415507,2.75072847754087,54.5288729680893,7.04720593260165
"163","BDI","BI",714,6411,6411,"mbogora ii",NA,29.77188889,-3.386833333,3,"school","mapping",2016,11,14,50,0,0,0,50,3,0,0,50,0,0,0,1,23546,0,0.06,0,0.0566037735849056,4778.33496534637,162,162,162,99,60.8338522569366,60.6643685101569,0.0457554625485611,0.169486127912687,39.1203911052161,86.4974648240509,73.911525942395,0.0104640336326312,12.5859404579971,13.4920687791542
"164","BDI","BI",714,6411,6411,"mbogora iii",NA,29.76836111,-3.459527778,3,"school","mapping",2016,12,14,50,0,0,0,50,9,0,0,50,2,0,0,1,23548,0,0.18,0.04,0.200754716981132,0,163,163,259,100,67.9681463076439,67.6835916740303,0.539206226550056,0.284552738078142,31.4926494673872,82.4300256672662,51.0051036951535,0.506632365835748,31.4249226856412,17.063340026768
"165","BDI","BI",716,6416,6416,"mbuza",NA,30.04374,-3.77378,3,"school","mapping",2014,13,14,50,2,0,0,50,16,0,0.04,50,9,0,0,1,23606,0.04,0.32,0.18,0.4384,4127.55028073939,164,164,164,101,47.786078717777,47.5642007633926,0.285557001340295,0.221878472166641,51.9283639360421,81.7809412832071,55.052507622618,1.87826140045808,26.7284359760293,16.3407954194883
"166","BDI","BI",703,6380,6380,"michel archange",NA,29.3677213,-3.376504,3,"school","mapping",2014,12,14,50,0,0,0,50,0,0,0,50,0,0,0,1,23250,0,0,0,0,1554.54188297311,165,165,165,102,91.8016740249765,46.9738697671698,7.16126156746764,44.8278039256253,1.0370653866746,99.4990721327398,1.50279054506429,0.304488974486741,97.996282305715,0.196438430615538
"167","BDI","BI",712,6405,6405,"migezi",NA,29.7438889,-4.2877778,1,"school","mapping",2014,12,16,50,1,0,0,50,5,0,0,50,1,0,0,1,23504,0.02,0.1,0.02,0.127962264150943,3256.90597846547,166,166,166,103,87.7265363212744,87.4636986676107,0.150648898165333,0.262838696396961,12.1228137511734,94.8556582066605,35.5490677495252,0.107781877017522,59.3065893348768,5.03656177464507
"168","BDI","BI",709,6396,6396,"mikoni",NA,29.7216,-2.9533,1,"school","mapping",2014,13,15,50,0,0,0,50,13,0,0.04,50,3,0,0,1,23440,0,0.26,0.06,0.287169811320755,2292.39654437015,167,167,167,104,43.5155864490352,43.1391430540622,3.90250974774923,0.376443748066068,52.5819036176867,98.0177735229699,88.2317219230011,0.00230049540934755,9.78605244437228,1.97992486330857
"169","BDI","BI",708,6395,6395,"mikore",NA,30.1309,-3.2422,1,"school","mapping",2014,12,16,50,0,0,0,50,10,0,0,50,0,0,0,1,23432,0,0.2,0,0.188679245283019,5395.94368866826,168,168,168,105,85.7040283487159,85.089984419832,5.05506290129029,0.614040876098029,9.24090856713505,92.9480797101813,86.7000297094384,0.0971419522409524,6.2480485327571,6.95478084250912
"17","BDI","BI",702,6377,6377,"bwumba",NA,29.5145,-3.4234,3,"school","mapping",2014,12,16,50,2,0,0,50,26,0,0.16,50,14,0,0,1,23225,0.04,0.52,0.28,0.6304,0,16,16,17,14,87.6271765665663,87.4599372681963,0.196302784159474,0.167239108778533,12.1765203988473,87.7779887215924,53.2214142749547,1.05416808431492,34.5565747007869,11.1678436577332
"170","BDI","BI",705,6386,6386,"minyare",NA,30.4910928,-3.2182245,3,"school","mapping",2014,12,14,50,4,0,0,50,2,0,0,50,0,0,0,1,23362,0.08,0.04,0,0.110188679245283,0,169,169,170,106,44.6191967266516,43.659929010111,1.51712877316328,0.959268590857114,53.863672098867,99.2030425488597,8.00569049067692,0.51222337520897,91.1973508448209,0.284732934640862
"171","BDI","BI",705,6386,6386,"minyare",10202,30.4910928,-3.2182245,3,"","",2014,NA,NA,50,3,NA,NA,50,2,NA,NA,50,0,NA,NA,1,2182,0.06,0.04,0,0.0920754716981132,0,170,170,169,106,44.6191967266516,43.659929010111,1.51712877316328,0.959268590857114,53.863672098867,99.2030425488597,8.00569049067692,0.51222337520897,91.1973508448209,0.284732934640862
"172","BDI","BI",706,6388,6388,"mirombero",NA,29.1230716,-2.8878427,2,"school","mapping",2014,12,14,50,1,0,0,50,6,0,0,50,2,0,0,1,23384,0.02,0.12,0.04,0.162354716981132,0,171,171,82,52,35.6153006447082,28.5611381627603,20.7833127771865,7.05416364172424,43.601384593392,96.9842965658145,0.229795337237446,1.59419355170699,96.7545006270119,1.42151064674737
"173","BDI","BI",706,6388,6388,"mirombero",NA,29.1230716,-2.8878427,2,"school","sentinel site",2009,6,18,427,80,0,0,428,79,0,0,428,54,0,0,1,23381,0.187353629976581,0.184579439252336,0.126168224299065,0.397128899297887,0,172,172,82,52,31.3366825792845,25.2524987211962,17.5197352786695,6.08418425149275,51.1435857122753,96.2289366036556,0.237154141565786,2.35660598481482,95.9917808169722,1.41445721283256
"174","BDI","BI",706,6388,6388,"mirombero",NA,29.1230716,-2.8878427,2,"school","sentinel site",2007,5,23,300,118,0,0,300,13,0,0,300,7,0,0,1,23379,0.393333333333333,0.0433333333333333,0.0233333333333333,0.408645632424878,0,173,173,82,52,30.3322375202126,24.3215360030816,17.036248811759,6.01070132994273,52.6315137248821,95.397190071588,0.296255677507864,3.13446711214529,95.1009335063399,1.46834114087113
"175","BDI","BI",706,6388,6388,"mirombero",NA,29.1230716,-2.8878427,2,"school","sentinel site",2011,6,17,412,17,0,0,412,15,0,0,412,8,0,0,1,23383,0.0412621359223301,0.0364077669902912,0.0194174757281553,0.0887793708456345,0,174,174,82,52,32.8304376266566,26.4879149657856,19.0435342413438,6.34252118754077,48.1260282345293,96.7738826247891,0.210440950933197,1.87225857251285,96.5634418563952,1.35385729328588
"176","BDI","BI",706,6388,6388,"mirombero",NA,29.1230716,-2.8878427,2,"school","sentinel site",2010,5,19,441,22,0,0,441,4,0,0,441,7,0,0,1,23382,0.0498866213151927,0.0090702947845804,0.0158730158730158,0.0692913244054438,0,175,175,82,52,31.9275570096281,25.8062811490018,18.3173337182902,6.12127585188291,49.7551096827786,96.5140159783655,0.220832555403259,2.0948137409146,96.2931824320275,1.3911711336277
"177","BDI","BI",706,6388,6388,"mirombero",NA,29.1230716,-2.8878427,2,"school","sentinel site",2008,6,18,305,26,0,0,305,2,0,0.0033,305,3,0,0,1,23380,0.0852459016393442,0.0065573770491803,0.0098360655737704,0.0945121414451363,0,176,176,82,52,30.592955984753,24.545627507874,16.7556244045641,6.04732667703269,52.6514189959103,95.689589170088,0.272761062662063,2.80842789804929,95.4168277823415,1.50198397199382
"178","BDI","BI",714,6410,6410,"mpanuka",NA,29.79391667,-3.350055556,3,"school","mapping",2016,12,14,48,1,0,0,48,9,0,0,48,4,0,0,1,23535,0.0208333333333333,0.1875,0.0833333333333333,0.255400779612159,4778.33496534637,177,177,177,107,65.5158867480245,64.8704409874097,0.410916736645391,0.645443183079978,34.0731982979548,87.9258822135495,81.7344096406344,0.0239331570095199,6.19146899576434,12.0501869892071
"179","BDI","BI",706,6388,6388,"mparambo",NA,29.1230716,-2.8878427,2,"school","mapping",2014,12,14,50,4,0,0,50,2,0,0,50,0,0,0,1,23385,0.08,0.04,0,0.110188679245283,0,178,178,82,52,35.6153006447082,28.5611381627603,20.7833127771865,7.05416364172424,43.601384593392,96.9842965658145,0.229795337237446,1.59419355170699,96.7545006270119,1.42151064674737
"18","BDI","BI",702,6377,6377,"bwumba",10240,29.5145,-3.4234,3,"","",2014,NA,NA,50,2,NA,NA,50,25,NA,NA,50,12,NA,NA,1,2149,0.04,0.5,0.24,0.599245283018868,0,17,17,16,14,87.6271765665663,87.4599372681963,0.196302784159474,0.167239108778533,12.1765203988473,87.7779887215924,53.2214142749547,1.05416808431492,34.5565747007869,11.1678436577332
"180","BDI","BI",706,6388,6388,"mparambo",10210,29.1230716,-2.8878427,2,"","",2014,NA,NA,50,5,NA,NA,50,2,NA,NA,50,0,NA,NA,1,18556,0.1,0.04,0,0.128301886792453,0,179,179,82,52,35.6153006447082,28.5611381627603,20.7833127771865,7.05416364172424,43.601384593392,96.9842965658145,0.229795337237446,1.59419355170699,96.7545006270119,1.42151064674737
"181","BDI","BI",715,6414,6414,"mpondogoto",NA,29.71866667,-2.906222222,3,"school","mapping",2016,13,14,50,0,0,0,50,13,0,0.06,50,6,0,0,1,23587,0,0.26,0.12,0.329056603773585,3030.06866905745,180,180,180,108,51.4723009763903,50.0616157731104,7.38685944802577,1.41068452993982,41.1408385752463,98.4986845491977,85.3345576604001,0.00395452739904774,13.1641259674976,1.49736140503391
"182","BDI","BI",704,6385,6385,"mudende",NA,29.51333333,-3.891388889,3,"school","sentinel site",2007,5,18,300,82,0,0,300,17,0,0,300,6,0,0,1,23353,0.273333333333333,0.0566666666666666,0.02,0.309642348008386,0,181,181,33,25,63.5850980793964,63.4155520205671,0.525981453199861,0.169550710412177,35.8889182774787,36.225870289327,32.334600547471,8.93439529918703,3.89127203647723,54.839736790271
"183","BDI","BI",704,6385,6385,"mudende",NA,29.51333333,-3.891388889,3,"school","sentinel site",2011,5,21,424,46,0,0,424,19,0,0,424,8,0,0,1,23357,0.108490566037736,0.0448113207547169,0.0188679245283018,0.155195703531888,0,182,182,33,25,66.3818657332708,66.2006347158826,0.616493526009965,0.181224258741749,33.00164539737,38.0216558119423,32.384531555496,4.05306640273679,5.6371242212867,57.925279079837
"184","BDI","BI",704,6385,6385,"mudende",NA,29.51333333,-3.891388889,3,"school","sentinel site",2009,5,17,392,68,0,0,392,11,0,0,392,6,0,0,1,23355,0.173469387755102,0.0280612244897959,0.0153061224489795,0.197130967563092,0,183,183,33,25,64.7927367639906,64.6206070817945,0.542459266038331,0.172129242045168,34.6648059512954,36.0790355853587,31.2670707495832,5.83977237126274,4.81196550986914,58.0811896904566
"185","BDI","BI",704,6385,6385,"mudende",NA,29.51333333,-3.891388889,3,"school","sentinel site",2010,5,20,413,76,0,0.0024,413,11,0,0,413,3,0,0,1,23356,0.184019370460048,0.0266343825665859,0.0072639225181598,0.199548927298636,0,184,184,33,25,65.4901729587813,65.3167388657601,0.580058958546456,0.173433592131304,33.9297706468393,36.6475729950078,31.430252927619,4.82498735145635,5.21732128598052,58.527441226865
"186","BDI","BI",704,6385,6385,"mudende",NA,29.51333333,-3.891388889,3,"school","sentinel site",2008,6,18,319,60,0,0,319,2,0,0,319,1,0,0,1,23354,0.188087774294671,0.006269592476489,0.0031347962382445,0.184629580405554,0,185,185,33,25,63.8851435567719,63.7143035101646,0.509854487343452,0.170834978167816,35.6050069416444,35.8226797338892,31.6437940317024,7.17066506561138,4.17888616984439,57.0066552179638
"187","BDI","BI",704,6385,6385,"mudende ii",10349,29.5171845,-3.8906651,3,"","",2014,NA,NA,50,3,NA,NA,50,5,NA,NA,50,0,NA,NA,1,18540,0.06,0.1,0,0.145283018867924,436.250338510244,186,186,186,109,71.8952471754679,71.6989047479747,0.563895561797014,0.196346071624364,27.5408529604282,46.6622407581418,40.2657279235551,1.66276976662845,6.39651000735872,51.6749908449529
"188","BDI","BI",708,6394,6394,"mugende",NA,30.09676,-3.02906,3,"school","mapping",2014,12,15,50,0,0,0,50,22,0,0.02,50,0,0,0,1,23426,0,0.44,0,0.415094339622641,7367.50511784031,187,187,187,110,64.9286932428342,64.8422643825756,1.48946619767886,0.0864296766451184,33.581839686662,89.6805097521718,83.190557805006,1.20182284380162,6.48995242939788,9.11766775141174
"189","BDI","BI",702,6379,6379,"mugendo",NA,29.3428,-3.6911,1,"school","mapping",2014,11,15,50,3,0,0,50,22,0,0.08,50,9,0,0,1,23241,0.06,0.44,0.18,0.536181132075471,0,188,188,189,111,16.4880249500275,16.2622575759888,19.1555564403534,0.225767411291599,64.3564147949219,92.0781440734863,6.80124825239182,1.7484365105629,85.2768974304199,6.17341566085815
"19","BDI","BI",703,6381,6381,"cibitoke ii",NA,29.3769066,-3.3422586,3,"school","mapping",2014,12,16,50,0,0,0,50,0,0,0,50,5,0,0,1,23256,0,0,0.1,0.0943396226415094,979.052790623546,18,18,18,15,85.3203386558936,49.2173619497857,5.97097412962921,36.1029766317847,8.70868747921899,99.8106415474362,0.837607727023203,0.111532348763897,98.973036952895,0.077825388614201
"190","BDI","BI",702,6379,6379,"mugendo",10365,29.3428,-3.6911,1,"","",2014,NA,NA,50,3,NA,NA,50,20,NA,NA,50,6,NA,NA,1,18504,0.06,0.4,0.12,0.475169811320755,0,189,189,188,111,16.4880249500275,16.2622575759888,19.1555564403534,0.225767411291599,64.3564147949219,92.0781440734863,6.80124825239182,1.7484365105629,85.2768974304199,6.17341566085815
"191","BDI","BI",711,6403,6403,"mugeni",NA,30.0544625,-4.1173608,3,"school","mapping",2014,12,14,50,2,0,0,50,0,0,0,50,0,0,0,1,23488,0.04,0,0,0.0377358490566037,0,190,190,191,112,58.9612797624456,58.5116839921288,3.41706694981425,0.449594945527096,37.6216553718841,47.9063444005774,16.6508292619869,15.3835287702485,31.2555157215828,36.710125410774
"192","BDI","BI",711,6403,6403,"mugeni",NA,30.0544625,-4.1173608,3,"school","sentinel site",2009,6,17,350,61,0,0,350,36,0,0,349,44,0,0,1,23486,0.174285714285714,0.102857142857143,0.126074498567335,0.332651185575598,0,191,191,190,112,54.4511933135044,54.0617213906296,2.62819999511675,0.389472364893448,42.9206079776712,42.1121974427715,13.272901219894,28.1001788442768,28.8392968912895,29.7876204387676
"193","BDI","BI",711,6403,6403,"mugeni",NA,30.0544625,-4.1173608,3,"school","sentinel site",2011,6,17,474,10,0,0,474,14,0,0,474,3,0,0,1,23487,0.0210970464135021,0.0295358649789029,0.0063291139240506,0.0528513095585079,0,192,192,190,112,56.1433474070301,55.7378859778301,2.97270394943271,0.405462936473333,40.8839483730446,44.1457926061033,13.5339519097246,21.9637082782856,30.611840550279,33.890500888149
"194","BDI","BI",711,6403,6403,"mugeni",NA,30.0544625,-4.1173608,3,"school","sentinel site",2008,6,17,300,25,0,0,300,1,0,0.0033,300,5,0,0,1,23485,0.0833333333333333,0.0033333333333333,0.0166666666666666,0.0958639063591893,0,193,193,190,112,53.4943144535005,53.1070474329804,2.47122193684723,0.387266686484356,44.0344633661079,41.0446616217602,13.7937747288388,31.8875285348567,27.2508858738039,27.0678111669258
"195","BDI","BI",711,6403,6403,"mugeni",10288,30.0544625,-4.1173608,3,"","",2014,NA,NA,50,1,NA,NA,50,1,NA,NA,50,0,NA,NA,1,2222,0.02,0.02,0,0.0373584905660377,0,194,194,190,112,58.9612797624456,58.5116839921288,3.41706694981425,0.449594945527096,37.6216553718841,47.9063444005774,16.6508292619869,15.3835287702485,31.2555157215828,36.710125410774
"196","BDI","BI",706,6389,6389,"mugina",NA,29.1085314,-2.7542222,1,"school","mapping",2014,13,14,50,9,0,0,50,1,0,0,50,0,0,0,1,23397,0.18,0.02,0,0.185283018867925,4841.43641592035,195,195,195,113,59.7365220155852,58.9960520161915,0.590106032844957,0.740469474838299,39.6733733585109,72.9143252718494,27.8300996879164,8.23828686659601,45.0842295474599,18.8473844585078
"197","BDI","BI",711,6404,6404,"mugu",NA,29.6887,-4.1662,3,"school","mapping",2014,12,14,50,1,0,0,50,2,0,0,50,1,0,0,1,23497,0.02,0.04,0.02,0.0736,2376.83558001715,196,196,196,114,60.549741429308,60.2934676685734,0.162633129358739,0.256277576585569,39.2876223945389,77.8212582567603,69.0793406607464,0.392606848873391,8.74192179700958,21.7861316639324
"198","BDI","BI",707,6393,6393,"muhagaze",NA,29.5094444,-3.2197222,1,"school","mapping",2014,13,14,50,0,0,0,50,25,0,0.02,50,8,0,0,1,23420,0,0.5,0.16,0.547169811320755,0,197,197,198,115,91.732939211352,91.5680003810247,0.104338598256092,0.164933981706785,8.16272551721484,49.6009016990791,42.4455511658835,0.320929628017326,7.15534876936723,50.0781697827382
"199","BDI","BI",707,6393,6393,"muhagaze",10370,29.5094444,-3.2197222,1,"","",2014,NA,NA,50,0,NA,NA,50,29,NA,NA,50,8,NA,NA,1,2199,0,0.58,0.16,0.610566037735849,0,198,198,197,115,91.732939211352,91.5680003810247,0.104338598256092,0.164933981706785,8.16272551721484,49.6009016990791,42.4455511658835,0.320929628017326,7.15534876936723,50.0781697827382
"2","BDI","BI",715,6414,6414,"buhiga ii",NA,29.7915,-2.906027778,3,"school","mapping",2016,13,14,50,0,0,0,50,9,0,0.02,50,24,0,0.04,1,23577,0,0.18,0.48,0.541132075471698,5574.96527909787,1,1,1,2,52.4843756240017,37.5257992992863,4.03248059641889,14.9585763687211,43.4831418954153,78.2099295325151,64.4624377206741,0.267934790170624,13.7474921692908,21.5221358872916
"20","BDI","BI",704,6384,6384,"condi",NA,29.8279,-3.8073,3,"school","mapping",2014,12,15,50,0,0,0,50,19,0,0.04,50,1,0,0,1,23312,0,0.38,0.02,0.370188679245283,0,19,19,20,16,57.5870807417571,57.056180050026,1.27066458992522,0.530901523547379,41.1422531180753,69.3376328493678,36.5192772609549,13.0596891504907,32.8183578968072,17.6026767191088
"200","BDI","BI",709,6396,6396,"muhanga iii",NA,29.8325852,-3.0279801,3,"school","mapping",2014,12,16,50,6,0,0,50,21,0,0.1,50,6,0,0,1,23441,0.12,0.42,0.12,0.519667924528302,0,199,199,200,116,12.8185425398148,12.5029683148193,2.39234779690036,0.315574855353947,84.7891111101503,98.9845680287349,89.3557883932028,0.0311372501449132,9.62877772482174,0.984296087235814
"201","BDI","BI",709,6396,6396,"muhanga iii",10217,29.8325852,-3.0279801,3,"","",2014,NA,NA,50,6,NA,NA,50,21,NA,NA,50,7,NA,NA,1,18598,0.12,0.42,0.14,0.529298113207547,0,200,200,199,116,12.8185425398148,12.5029683148193,2.39234779690036,0.315574855353947,84.7891111101503,98.9845680287349,89.3557883932028,0.0311372501449132,9.62877772482174,0.984296087235814
"202","BDI","BI",701,6375,6375,"muhanza",NA,29.3063,-3.0201,3,"school","mapping",2014,13,16,50,1,0,0,50,2,0,0,50,0,0,0,1,23203,0.02,0.04,0,0.0558490566037735,5404.17338126016,201,201,201,117,69.8662715788216,69.6108160103549,1.07340642118103,0.255453840198909,29.0603219529156,67.5226931135152,56.5456012037486,15.0151063927377,10.9770912004396,17.4621988404406
"203","BDI","BI",705,6386,6386,"muhweza",NA,30.616667,-3.133333,1,"school","mapping",2014,13,14,50,5,0,0,50,0,0,0,50,0,0,0,1,23366,0.1,0,0,0.0943396226415094,0,202,202,203,118,70.4139674030775,68.3545775057567,0.568036124833547,2.05939108479904,29.0179949014275,87.9214459890641,23.3320262453424,1.30516903437555,64.589420976351,10.7733854031259
"204","BDI","BI",705,6386,6386,"muhweza",NA,30.616667,-3.133333,1,"school","sentinel site",2008,6,18,300,67,0,0,300,26,0,0,300,4,0,0,1,23363,0.223333333333333,0.0866666666666666,0.0133333333333333,0.283115583508036,0,203,203,202,118,65.175758564932,63.4803844312873,0.441241766867992,1.69537297774362,34.3830003697349,84.1481710991589,23.5759796868001,4.15020748491717,60.5721913386977,11.7016201610103
"205","BDI","BI",705,6386,6386,"muhweza",NA,30.616667,-3.133333,1,"school","sentinel site",2011,7,19,459,36,0,0,459,13,0,0,458,3,0,0,1,23365,0.0784313725490196,0.0283224400871459,0.0065502183406113,0.104149012065827,0,204,204,202,118,67.7186408515696,65.9178233114021,0.512645427224462,1.80081517720273,31.7687141465166,85.4936393288145,21.5386179989664,2.30937171273478,63.9550245114282,12.1969877882421
"206","BDI","BI",705,6386,6386,"muhweza",NA,30.616667,-3.133333,1,"school","sentinel site",2009,6,18,362,21,0,0,362,8,0,0,362,3,0,0,1,23364,0.0580110497237569,0.0220994475138121,0.0082872928176795,0.0815683992154253,0,205,205,202,118,66.0918466605398,64.3833484384645,0.46342967482944,1.70849934439053,33.4447220273425,84.4650682988519,22.2762341880984,3.395901001677,62.1888374386154,12.1390279156898
"207","BDI","BI",707,6390,6390,"mungwa",NA,29.8818,-3.45176,3,"","",2007,10,16,60,20,NA,NA,60,36,NA,NA,60,25,NA,NA,1,31275,0.333333333333333,0.6,0.416666666666667,0.796645702306079,4748.22581110908,206,206,206,119,70.2223576806527,69.6977096570203,0.655576019847713,0.524645634698084,29.1220652007846,92.7935691831215,57.5258663461702,0.594605199750025,35.2677042887369,6.61182342479905
"208","BDI","BI",706,6388,6388,"munyika i",NA,29.8041667,-4.1558333,1,"school","mapping",2014,13,14,50,4,0,0,50,1,0,0,50,0,0,0,1,23391,0.08,0.02,0,0.0928301886792452,0,207,207,208,120,87.312833409523,64.7470290904229,2.18624322369964,22.5658047328541,10.5009233436944,97.8409159324399,30.4523827800556,0.256337976430856,67.3885295211639,1.90274889806921
"209","BDI","BI",706,6388,6388,"munyika i",10211,29.8041667,-4.1558333,1,"","",2014,NA,NA,47,4,NA,NA,47,1,NA,NA,47,0,NA,NA,1,18553,0.0851063829787234,0.0212765957446808,0,0.098653023224032,0,208,208,207,120,87.312833409523,64.7470290904229,2.18624322369964,22.5658047328541,10.5009233436944,97.8409159324399,30.4523827800556,0.256337976430856,67.3885295211639,1.90274889806921
"21","BDI","BI",704,6384,6384,"condi",NA,29.8279,-3.8073,3,"school","sentinel site",2009,6,16,389,3,0,0,389,182,0,0.0026,389,38,0,0,1,23309,0.0077120822622107,0.467866323907455,0.0976863753213367,0.493916510864293,0,20,20,19,16,53.1287812599537,52.686841316338,1.02084590258622,0.441937422298474,45.8503755927006,62.0199696838204,33.6749164732232,20.995021259378,28.3450522602026,16.9850098641234
"210","BDI","BI",706,6388,6388,"munyika ii",NA,29.8041667,-4.1558333,1,"school","mapping",2014,13,14,50,5,0,0,50,2,0,0.04,50,6,0,0,1,23392,0.1,0.04,0.12,0.22611320754717,0,209,209,207,120,87.312833409523,64.7470290904229,2.18624322369964,22.5658047328541,10.5009233436944,97.8409159324399,30.4523827800556,0.256337976430856,67.3885295211639,1.90274889806921
"211","BDI","BI",706,6388,6388,"munyika ii",10212,29.8041667,-4.1558333,1,"","",2014,NA,NA,50,6,NA,NA,50,2,NA,NA,50,6,NA,NA,1,2187,0.12,0.04,0.12,0.242052830188679,0,210,210,207,120,87.312833409523,64.7470290904229,2.18624322369964,22.5658047328541,10.5009233436944,97.8409159324399,30.4523827800556,0.256337976430856,67.3885295211639,1.90274889806921
"212","BDI","BI",717,6418,6418,"munyinya i",NA,30.3088889,-3.3063889,1,"school","mapping",2014,12,15,50,2,0,0,50,2,0,0,50,0,0,0,1,23615,0.04,0.04,0,0.0739622641509433,0,211,211,212,121,36.1725227238891,35.6310434705175,6.47119376664593,0.54147977302556,57.3562821914342,60.5769487763175,35.743812660223,5.36027863205743,24.8331350138879,34.0627729754568
"213","BDI","BI",710,6399,6399,"munyinya i",10194,30.3088889,-3.3063889,1,"","",2014,NA,NA,50,3,NA,NA,50,10,NA,NA,50,1,NA,NA,1,18614,0.06,0.2,0.02,0.248150943396226,0,212,212,211,121,36.1725227238891,35.6310434705175,6.47119376664593,0.54147977302556,57.3562821914342,60.5769487763175,35.743812660223,5.36027863205743,24.8331350138879,34.0627729754568
"214","BDI","BI",710,6400,6400,"munzenze",NA,30.1037,-2.557,1,"school","mapping",2014,12,15,50,1,0,0,50,0,0,0,50,1,0,0,1,23464,0.02,0,0.02,0.0373584905660377,3214.44827099576,213,213,213,122,30.4010657622932,24.6656408884543,5.89991307845285,5.73542579347342,63.6990169741035,93.4035461805704,63.7979277594016,1.74670949944324,29.6056147965595,4.84974742143536
"215","BDI","BI",715,6412,6412,"murama",NA,29.77088889,-2.809,3,"school","mapping",2014,13,14,50,3,0,0,50,11,0,0.06,50,1,0,0,1,23560,0.06,0.22,0.02,0.265532075471698,0,214,214,215,123,10.7927180718514,10.4887692373244,4.76600203137464,0.303949018471295,84.4412814080697,85.3824851344006,81.1563728488805,0.11159717661369,4.22611290359299,14.5059158375958
"216","BDI","BI",715,6412,6412,"murama",NA,29.77088889,-2.809,3,"school","mapping",2016,13,15,50,1,0,0,50,1,0,0,50,2,0,0,1,23561,0.02,0.02,0.04,0.0736,0,215,215,214,123,11.173891486931,10.8407872884767,5.62541865017659,0.333104054019172,83.2006922918744,88.3813131186452,84.2208570172433,0.0845507433126754,4.16044801120031,11.5341399541184
"217","BDI","BI",717,6418,6418,"muramba",NA,30.23444675,-3.616279083,3,"school","mapping",2014,12,15,50,5,0,0,50,2,0,0,50,0,0,0,1,23616,0.1,0.04,0,0.128301886792453,8399.01477126961,216,216,216,124,59.886181822952,59.0113033762247,5.96552952731672,0.874877161225485,34.1482897242039,97.3007737486678,60.6599145738018,0.677664509452627,36.6408562125576,2.02156258359744
"218","BDI","BI",712,6406,6406,"muramvya iii",NA,29.6290353,-3.2679435,3,"school","mapping",2014,12,16,50,5,0,0,50,3,0,0,50,0,0,0,1,23512,0.1,0.06,0,0.145283018867924,6252.03643702124,217,217,217,125,71.7642423340163,61.9757774071275,4.0226705330883,9.78846408052116,24.2130876996172,91.8064902781822,78.1345739220067,0.275940053933953,13.6719170082174,7.91756923587982
"219","BDI","BI",717,6418,6418,"murangara",NA,30.51871,-3.502,1,"school","mapping",2014,12,15,50,8,0,0,50,1,0,0,50,1,0,0,1,23617,0.16,0.02,0.02,0.182324528301887,13849.2633577021,218,218,218,126,26.7458571143535,25.8239276135974,10.2694485180646,0.921928280789171,62.9846948355981,60.9904522298971,12.5409150187356,18.9264214254662,48.4495355064811,20.0831268270586
"22","BDI","BI",704,6384,6384,"condi",NA,29.8279,-3.8073,3,"school","sentinel site",2008,6,17,296,6,0,0,295,93,0.0068,0.0508,296,24,0,0,1,23308,0.0202702702702702,0.315254237288136,0.081081081081081,0.361819567689973,0,21,21,19,16,52.1922359827701,51.7536131496195,0.968758839978241,0.438622822126376,46.8390053412374,60.6417380251767,34.9947487087004,23.3829042148271,25.6469912979607,15.9753565650228
"220","BDI","BI",704,6384,6384,"murango",NA,29.667601,-3.74238,3,"","",2007,10,16,60,3,NA,NA,60,3,NA,NA,60,2,NA,NA,1,31266,0.05,0.05,0.0333333333333333,0.120361635220126,3310.90682467681,219,219,219,127,98.5953069014877,88.0224220052727,0.743780432153047,10.5728843120294,0.660911870285409,80.0558560037631,46.3805650053198,2.61688749792872,33.6752926994284,17.3272532502134
"221","BDI","BI",717,6418,6418,"mureba",NA,30.325,-3.5303,3,"school","mapping",2014,12,15,50,2,0,0,50,0,0,0,50,0,0,0,1,23618,0.04,0,0,0.0377358490566037,8019.04499724482,220,220,220,128,22.0137905414689,19.3112828322831,7.59301763351318,2.70250786959609,70.3931915627821,1.54921527901513,1.49371115870799e-06,90.5070623147431,1.54921368567153,7.94372404790734
"222","BDI","BI",705,6386,6386,"murehe",NA,30.5327,-3.2948,3,"school","mapping",2014,13,14,50,0,0,0,50,8,0,0,50,0,0,0,1,23367,0,0.16,0,0.150943396226415,0,221,221,222,129,53.6494741201864,53.1766812883175,0.578009123458454,0.472795195019801,45.7725151620268,69.0334924154772,57.9655243613033,17.6352573585575,11.0679685197036,13.3312496033584
"223","BDI","BI",705,6386,6386,"murehe",10204,30.5327,-3.2948,3,"","",2014,NA,NA,50,0,NA,NA,50,9,NA,NA,50,0,NA,NA,1,2179,0,0.18,0,0.169811320754717,0,222,222,221,129,53.6494741201864,53.1766812883175,0.578009123458454,0.472795195019801,45.7725151620268,69.0334924154772,57.9655243613033,17.6352573585575,11.0679685197036,13.3312496033584
"224","BDI","BI",715,6413,6413,"murehe i",NA,30.02494444,-2.736333333,3,"school","mapping",2016,13,15,50,3,0,0,50,7,0,0,50,1,0,0,1,23572,0.06,0.14,0.02,0.196007547169811,6818.45749691009,223,223,223,130,7.1013026954279,6.74626718084272,2.57866708921743,0.355035246890477,90.3200342969965,84.7023514807301,79.9003459553072,2.18055020219548,4.80200681916846,13.1170999925682
"225","BDI","BI",707,6390,6390,"muremera",NA,29.9,-3.333333,2,"school","mapping",2014,13,14,50,5,0,0,50,17,0,0.02,50,9,0,0,1,23401,0.1,0.34,0.18,0.48388679245283,0,224,224,225,131,38.5259782143942,38.078271729346,1.73739824310013,0.447703731992256,59.7366237928724,77.4255490758908,74.9046000714264,0.0717279559911937,2.52094650283199,22.5027253294848
"226","BDI","BI",707,6390,6390,"muremera",10231,29.9,-3.333333,2,"","",2014,NA,NA,50,5,NA,NA,50,18,NA,NA,50,9,NA,NA,1,18568,0.1,0.36,0.18,0.497811320754717,0,225,225,224,131,38.5259782143942,38.078271729346,1.73739824310013,0.447703731992256,59.7366237928724,77.4255490758908,74.9046000714264,0.0717279559911937,2.52094650283199,22.5027253294848
"227","BDI","BI",701,6376,6376,"murira",10299,29.3264765,-3.1817359,3,"","",2014,NA,NA,50,0,NA,NA,50,2,NA,NA,50,0,NA,NA,1,2147,0,0.04,0,0.0377358490566037,2155.69422441704,226,226,226,132,59.1328990713076,58.7077568921148,6.35911578966738,0.42514203403054,34.5079879087356,95.9173467352921,2.41816428633651,3.17813951517779,93.4991833774414,0.904513794945335
"228","BDI","BI",710,6402,6402,"murungurira",50203,30.0961296,-2.5848378,1,"","",2007,NA,NA,60,7,NA,NA,60,1,NA,NA,60,1,NA,NA,1,2131,0.116666666666667,0.0166666666666666,0.0166666666666666,0.137609189378057,3214.44827099576,227,227,227,133,32.2731196598555,23.5736373275037,10.7129875539069,8.699482505896,57.0138935907909,85.2565051743783,67.6850963763428,6.828661977168,17.571411008402,7.91483130695455
"229","BDI","BI",703,6382,6382,"musaga ii",NA,29.3763463,-3.4128068,4,"school","mapping",2014,12,14,50,0,0,0,50,0,0,0,50,2,0,0,1,23265,0,0,0.04,0.0377358490566037,0,228,228,229,134,87.5332771417367,54.2299284761232,6.32894387742976,33.3033467213509,6.13777990547185,97.8592602894612,4.66574252500358,0.823096726133955,93.1935177469869,1.31764176570733
"23","BDI","BI",704,6384,6384,"condi",NA,29.8279,-3.8073,3,"school","sentinel site",2007,6,20,300,4,0,0,300,93,0,0.06,300,39,0,0,1,23307,0.0133333333333333,0.31,0.13,0.38462641509434,0,22,22,19,16,51.8836591517223,51.4483265760376,0.994150187738794,0.435333084939703,47.1221915966448,60.3750209461733,36.0233083929862,25.4153155168299,24.3517137380497,14.2096617851313
"230","BDI","BI",703,6382,6382,"musaga ii",10184,29.3763463,-3.4128068,4,"","",2014,NA,NA,50,0,NA,NA,50,0,NA,NA,50,0,NA,NA,1,18522,0,0,0,0,0,229,229,228,134,87.5332771417367,54.2299284761232,6.32894387742976,33.3033467213509,6.13777990547185,97.8592602894612,4.66574252500358,0.823096726133955,93.1935177469869,1.31764176570733
"231","BDI","BI",713,6409,6409,"musenga",NA,30.34222222,-2.921388889,3,"school","mapping",2014,13,14,50,7,0,0,50,2,0,0,50,2,0,0,1,23531,0.14,0.04,0.04,0.195683018867924,0,230,230,231,135,52.0423865232273,51.6035543300076,0.985100230648626,0.438832608464234,46.9725134037946,97.5881926796467,82.0003826992547,0.0272781677159159,15.5878121704263,2.38452792553865
"232","BDI","BI",713,6409,6409,"musenga",NA,30.34222222,-2.921388889,3,"school","sentinel site",2008,6,20,300,63,0,0,300,55,0,0,300,27,0,0,1,23528,0.21,0.183333333333333,0.09,0.389526729559748,0,231,231,230,135,45.8202428773917,45.4608981665867,0.673221983746663,0.359344683692823,53.5065360307118,96.3826465100886,85.1048039612659,0.104417338395195,11.277841432452,3.5129360899924
"233","BDI","BI",713,6409,6409,"musenga",NA,30.34222222,-2.921388889,3,"school","sentinel site",2011,6,18,437,72,0,0,437,28,0,0,437,19,0,0,1,23530,0.164759725400458,0.0640732265446224,0.0434782608695652,0.237985144550839,0,232,232,230,135,48.7986400593811,48.416421866009,0.834476712932666,0.382216542904073,50.3668828061815,96.743751289196,81.9408895387649,0.0546067434537614,14.8028610507747,3.20164383763639
"234","BDI","BI",713,6409,6409,"musenga",NA,30.34222222,-2.921388889,3,"school","sentinel site",2009,5,18,307,56,0,0,307,14,0,0,307,8,0,0,1,23529,0.182410423452769,0.0456026058631921,0.0260586319218241,0.226441819686258,0,233,233,230,135,46.8878900330277,46.5257328082137,0.722597705347602,0.362155548789679,52.3895130164804,96.4198996815991,83.5883595899661,0.0844179129040953,12.8315412478187,3.49568295648703
"235","BDI","BI",704,6383,6383,"musenyi",NA,29.40444444,-3.195833333,4,"school","mapping",2007,10,16,60,7,0,0,60,4,0,0,60,0,0,0,1,23283,0.116666666666667,0.0666666666666666,0,0.165618448637317,0,234,234,36,28,69.9737221432015,69.2055491039037,2.25326115536349,0.768176706625034,27.7730131072801,89.8968976985206,1.06741182381046,3.26737599444614,88.8294880136333,6.83572405685928
"236","BDI","BI",701,6376,6376,"musenyi",NA,29.40444444,-3.195833333,3,"school","sentinel site",2009,6,18,385,22,0,0,385,25,0,0,385,0,0,0,1,23216,0.0571428571428571,0.0649350649350649,0,0.111667308432807,0,235,235,36,28,71.1477872063306,70.3675438903099,2.30240746058872,0.780244614366959,26.5498038439632,91.5495465181161,0.869957214801331,1.98274114670534,90.6795884509781,6.46771238291179
"237","BDI","BI",701,6376,6376,"musenyi",NA,29.40444444,-3.195833333,3,"school","sentinel site",2007,5,19,300,67,0,0,300,14,0,0,299,3,0,0,1,23214,0.223333333333333,0.0466666666666666,0.0100334448160535,0.2518931729104,0,236,236,36,28,69.9737221432015,69.2055491039037,2.25326115536349,0.768176706625034,27.7730131072801,89.8968976985206,1.06741182381046,3.26737599444614,88.8294880136333,6.83572405685928
"238","BDI","BI",701,6376,6376,"musenyi",NA,29.40444444,-3.195833333,3,"school","sentinel site",2011,4,17,370,32,0,0,370,4,0,0,370,4,0,0,1,23218,0.0864864864864864,0.0108108108108108,0.0108108108108108,0.100123928661492,0,237,237,36,28,72.6814143389774,71.8583429548768,2.57319989936419,0.823071682035053,24.7453872167598,92.7087374327404,0.80870140681286,1.30165167999917,91.9000344468307,5.98960984157031
"239","BDI","BI",701,6376,6376,"musenyi",NA,29.40444444,-3.195833333,3,"school","sentinel site",2008,6,18,243,35,0,0,243,2,0,0,243,3,0,0,1,23215,0.1440329218107,0.0082304526748971,0.0123456790123456,0.152413620628005,0,238,238,36,28,70.2667514573978,69.4925687679056,2.18157767846308,0.774186541661517,27.5516691582235,90.4619204340987,0.983111478084361,2.61261501497649,89.4788098239572,6.92546547223568
"24","BDI","BI",704,6384,6384,"condi",NA,29.8279,-3.8073,3,"school","sentinel site",2010,5,17,424,3,0,0.0024,424,129,0,0.033,424,27,0,0,1,23310,0.0070754716981132,0.304245283018868,0.0636792452830188,0.333169557902268,0,23,23,19,16,53.8539026501566,53.4086267569102,1.07924540456527,0.445277078047638,45.0668538801229,63.1392494030301,33.1671967077028,19.0716158960163,29.972055578786,17.7891347957031
"240","BDI","BI",701,6376,6376,"musenyi",NA,29.40444444,-3.195833333,3,"school","sentinel site",2010,6,20,387,40,0,0,387,3,0,0,387,9,0,0,1,23217,0.103359173126615,0.0077519379844961,0.0232558139534883,0.123585231304476,0,239,239,36,28,71.8212454254316,71.0348972717402,2.44389933837656,0.786351171976489,25.734854237159,92.143161255861,0.823595957031102,1.59508756227072,91.3195663323388,6.26175114236081
"241","BDI","BI",705,6386,6386,"musenyi",NA,30.02911,-2.949275,1,"","",2007,10,16,60,7,NA,NA,60,4,NA,NA,60,0,NA,NA,1,31282,0.116666666666667,0.0666666666666666,0,0.165618448637317,3074.82775820632,240,240,240,136,11.7695458608702,11.4828988816108,3.68659468343738,0.286647032675329,84.5438616174193,99.5178657586965,84.2065171751224,0.00692514067062208,15.3113448108286,0.475212171340572
"242","BDI","BI",701,6376,6376,"musenyi i",NA,29.40444444,-3.195833333,3,"school","mapping",2014,12,16,50,1,0,0,50,0,0,0,50,1,0,0,1,23219,0.02,0,0.02,0.0373584905660377,0,241,241,36,28,75.1650103424748,74.2215370934563,2.88272119107459,0.943476167531169,21.9522646607975,93.2936360637696,0.979629190359597,0.84919238516713,92.3140088812179,5.85716887836382
"243","BDI","BI",715,6412,6412,"mushitsi i",NA,29.80519444,-2.857916667,3,"school","mapping",2016,12,15,50,0,0,0,50,5,0,0,50,9,0,0,1,23563,0,0.1,0.18,0.247169811320755,4235.78586431062,242,242,242,137,35.627927761018,33.0614854474212,0.654923359742634,2.56644388560753,63.717148813659,85.9144346508291,76.6417681092577,0.0378888432600482,9.2726682812985,14.0476775813148
"244","BDI","BI",704,6384,6384,"musho",NA,29.5528,-3.7267,3,"school","mapping",2014,12,16,50,1,0,0,50,7,0,0,50,1,0,0,1,23328,0.02,0.14,0.02,0.164203773584906,3838.30780475236,243,243,243,138,69.0404116122698,68.6993329931298,2.37098877700199,0.341077597850605,28.5885989075231,98.2476942016867,77.5648607784745,0.393773529272508,20.6828282870638,1.35853457702603
"245","BDI","BI",701,6375,6375,"musigati i",NA,29.4614578,-3.0684445,1,"school","mapping",2014,13,14,50,4,0,0,50,3,0,0,50,0,0,0,1,23204,0.08,0.06,0,0.127547169811321,4530.67945643424,244,244,244,139,30.3043734102001,30.1718776019614,2.15357255103559,0.132497136664169,67.5420538986362,51.4418671610196,35.1153484765997,17.2405972042353,16.3265193515054,31.3175332602871
"246","BDI","BI",707,6390,6390,"musinzira",10232,29.9334776,-3.4279647,3,"","",2014,NA,NA,50,0,NA,NA,50,3,NA,NA,50,3,NA,NA,1,2191,0,0.06,0.06,0.109811320754717,2842.41462627342,245,245,245,140,86.612321627106,68.7201518158494,7.17638154573573,17.8921716593815,6.21129657400996,88.1775283008015,45.9194804056759,0.228985341140185,42.2580522286371,11.5934818238737
"247","BDI","BI",712,6405,6405,"musongati",NA,29.6519444,-3.3733333,1,"school","mapping",2014,12,16,50,0,0,0,50,11,0,0,50,0,0,0,1,23506,0,0.22,0,0.207547169811321,3795.08239479511,246,246,246,141,71.3779123995744,69.9913466077099,0.634234283016635,1.38656677303108,27.9878525203257,97.0781317870532,84.5696107101365,0.115720035933401,12.5085233619264,2.80614612828125
"248","BDI","BI",703,6380,6380,"mutanga  sud",10175,29.3915246,-3.380529,3,"","",2014,NA,NA,50,4,NA,NA,50,0,NA,NA,50,3,NA,NA,1,18509,0.08,0,0.06,0.127547169811321,2096.66768464805,247,247,247,142,91.7223065250699,53.9991088315561,7.2561287258407,37.7231966121004,1.02156473565571,99.2909670244921,2.74708382061513,0.146043998061641,96.5438842895986,0.562987300872664
"249","BDI","BI",707,6392,6392,"mutoyi i",NA,29.9786581,-3.2138714,3,"school","mapping",2014,13,14,50,3,0,0,50,15,0,0.02,50,2,0,0,1,23416,0.06,0.3,0.04,0.347471698113207,6852.40945489972,248,248,248,143,76.9711635698512,75.7312865845617,1.61234621521909,1.23987488850116,21.416489515655,53.6642692288638,53.5995900093743,8.78845674053882,0.0646799474253043,37.5472747179034
"25","BDI","BI",704,6384,6384,"condi",NA,29.8279,-3.8073,3,"school","sentinel site",2011,6,18,410,1,0,0,410,113,0,0.0293,410,22,0,0,1,23311,0.0024390243902439,0.275609756097561,0.0536585365853658,0.298256111112176,0,24,24,19,16,54.7933889423122,54.3280360340518,1.13439825251638,0.465354070399323,44.0722129865139,64.7952733646761,33.2132256653979,17.2199781149616,31.5820481434221,17.9847484646604
"250","BDI","BI",716,6415,6415,"mutwana",NA,30.1837,-3.672,1,"school","mapping",2014,13,14,50,4,0,0,50,0,0,0,50,0,0,0,1,23593,0.08,0,0,0.0754716981132075,8399.01477126961,249,249,249,144,22.7561619627912,22.4727429771938,11.2390141541457,0.283420167308497,66.0048235607797,32.7537686760873,27.3637564231924,1.37501621621581,5.3900117154891,65.8712140396767
"251","BDI","BI",711,6404,6404,"mutwazi ii",NA,29.7409,-4.3168,3,"school","mapping",2014,12,16,50,2,0,0,50,0,0,0,50,0,0,0,1,23499,0.04,0,0,0.0377358490566037,3256.90597846547,250,250,250,145,89.9386707824606,89.4912815619093,0.146250375123235,0.44738891286033,9.91507709400306,92.8895409991019,24.5787198398228,0.207054940789018,68.3108192684161,6.90340371015433
"252","BDI","BI",716,6415,6415,"muzye i",NA,30.115,-3.9669444,1,"school","mapping",2014,13,14,50,10,0,0,50,2,0,0,50,1,0,0,1,23597,0.2,0.04,0.02,0.233358490566038,0,251,251,252,146,78.3795882464242,74.2597149108737,0.686483503135276,4.119868020227,20.933932262517,69.0875620370105,7.08669348915544,8.16383012447951,62.0008677537761,22.7486079509692
"253","BDI","BI",716,6415,6415,"muzye i",10227,30.115,-3.9669444,1,"","",2014,NA,NA,50,9,NA,NA,50,2,NA,NA,50,1,NA,NA,1,2242,0.18,0.04,0.02,0.215607547169811,0,252,252,251,146,78.3795882464242,74.2597149108737,0.686483503135276,4.119868020227,20.933932262517,69.0875620370105,7.08669348915544,8.16383012447951,62.0008677537761,22.7486079509692
"254","BDI","BI",711,6404,6404,"mvugo",NA,29.5694893,-4.2932228,1,"","",2007,10,16,54,8,NA,NA,54,0,NA,NA,54,0,NA,NA,1,31273,0.148148148148148,0,0,0.139762403913347,8588.55249192986,253,253,253,147,51.7379663888358,50.9155151633953,5.30164463966692,0.822451720300889,42.9603884215417,90.4903583346255,1.64144374066767,7.28910179530487,88.8489157226455,2.22053665437403
"255","BDI","BI",705,6387,6387,"mwiruzi",NA,30.7809066,-3.0624478,3,"school","mapping",2014,13,14,50,6,0,0,50,1,0,0,50,0,0,0,1,23372,0.12,0.02,0,0.129811320754717,6050.47153847168,254,254,254,148,56.7421058091888,56.2500152068221,4.37614619561553,0.492091087703417,38.8817480910357,79.2565071071671,22.3714732097254,17.0726292113501,56.8850296859847,3.67086408404772
"256","BDI","BI",701,6376,6376,"ndava busongo",NA,29.3458,-3.183,3,"school","mapping",2014,12,14,50,6,0,0,50,2,0,0,50,0,0,0,1,23220,0.12,0.04,0,0.146415094339623,0,255,255,256,149,60.0924880033494,59.4156936704665,6.38169741329949,0.67679492420311,33.5258150690276,95.4239707672684,0.835358702404525,3.32826798353062,94.5886118695704,1.24776090910073
"257","BDI","BI",701,6376,6376,"ndava busongo",10301,29.3458,-3.183,3,"","",2014,NA,NA,50,0,NA,NA,50,2,NA,NA,50,6,NA,NA,1,2148,0,0.04,0.12,0.146415094339623,0,256,256,255,149,60.0924880033494,59.4156936704665,6.38169741329949,0.67679492420311,33.5258150690276,95.4239707672684,0.835358702404525,3.32826798353062,94.5886118695704,1.24776090910073
"258","BDI","BI",717,6417,6417,"nkongwe",NA,30.1397522,-3.3519101,3,"school","mapping",2014,12,15,50,0,0,0,50,25,0,0.02,50,5,0,0,1,23612,0,0.5,0.1,0.518867924528302,4799.66160264073,257,257,257,150,81.5145273811172,80.7497707621158,0.261379948147409,0.764754410191005,18.2240955687421,99.2833613840536,74.8238590750425,0.0585266761951182,24.4595007253,0.658109706836187
"259","BDI","BI",713,6408,6408,"nonwe",NA,30.4131,-2.5082,3,"school","mapping",2014,13,14,50,5,0,0,50,3,0,0,50,1,0,0,1,23521,0.1,0.06,0.02,0.161245283018868,4199.73764749465,258,258,258,151,16.588638182686,16.13825525599,8.53518542026983,0.45038204871687,74.8761785038436,80.6011259167428,75.8665423585145,2.55793785077276e-07,4.73458406655816,19.3988745597995
"26","BDI","BI",714,6410,6410,"ecofo kibimba i",NA,29.62705556,-3.582222222,3,"school","mapping",2016,10,14,48,1,0,0,48,9,0,0.0208,48,3,0,0,1,23532,0.0208333333333333,0.1875,0.0625,0.239764519457547,3147.57232467581,25,25,25,17,93.3107269830509,92.6701415951024,2.90175656869754,0.640585854316751,3.78751609261273,88.9213609150167,37.1600304288536,1.08705190548636,51.7613301648776,9.99158813147031
"260","BDI","BI",714,6411,6411,"nyabihanga iii",NA,29.76836111,-3.459527778,3,"school","mapping",2016,11,14,49,0,0,0,49,1,0,0,49,0,0,0,1,23550,0,0.0204081632653061,0,0.0192529842125529,0,259,259,163,100,67.9681463076439,67.6835916740303,0.539206226550056,0.284552738078142,31.4926494673872,82.4300256672662,51.0051036951535,0.506632365835748,31.4249226856412,17.063340026768
"261","BDI","BI",702,6379,6379,"nyabisaka",NA,29.5726,-3.4279,3,"school","mapping",2014,12,15,50,0,0,0,50,4,0,0,50,0,0,0,1,23242,0,0.08,0,0.0754716981132075,6487.10219420871,260,260,260,152,73.4558410371833,73.0769129906802,1.45578129728065,0.378921610884711,25.0883815022698,88.8007373225821,67.0051949649719,0.450065662787555,21.7955467907467,10.7491939025313
"262","BDI","BI",717,6419,6419,"nyagutoha",NA,30.35362,-3.44427,3,"school","mapping",2014,12,16,50,2,0,0,50,5,0,0.02,50,1,0,0,1,23625,0.04,0.1,0.02,0.144603773584906,0,261,261,262,153,60.3379362113657,60.0146222407605,0.333664704842825,0.323321524662535,39.3283950595102,16.0478452202219,12.4361902510749,13.4272678987664,3.61165536333219,70.5248880067439
"263","BDI","BI",717,6419,6419,"nyagutoha",10360,30.35362,-3.44427,3,"","",2014,NA,NA,50,1,NA,NA,50,5,NA,NA,50,1,NA,NA,1,2255,0.02,0.1,0.02,0.127962264150943,0,262,262,261,153,60.3379362113657,60.0146222407605,0.333664704842825,0.323321524662535,39.3283950595102,16.0478452202219,12.4361902510749,13.4272678987664,3.61165536333219,70.5248880067439
"264","BDI","BI",714,6410,6410,"nyakigwa",NA,29.59647222,-3.507277778,3,"school","mapping",2016,12,14,50,0,0,0,50,8,0,0.02,50,0,0,0,1,23537,0,0.16,0,0.150943396226415,7860.55828337451,263,263,263,154,77.9029043943984,74.2940226457176,1.0589946028433,3.60888385853561,21.0381007994773,98.2414588413987,45.2355496416237,0.57306339224083,53.005908349463,1.18547773274887
"265","BDI","BI",716,6415,6415,"nyakuguma",NA,29.5280556,-4.1622222,1,"school","mapping",2014,13,14,50,3,0,0,50,3,0,0,50,1,0,0,1,23598,0.06,0.06,0.02,0.126483018867925,14139.7391260419,264,264,264,155,49.4209315736092,48.5977716303949,5.07101796923411,0.823159017325098,45.5080526632386,92.9071780542092,3.5303092240617,6.21658257984292,89.3768704466272,0.876237700701919
"266","BDI","BI",705,6386,6386,"nyamashishi",NA,30.6390558,-3.007784,3,"school","mapping",2014,13,14,50,0,0,0,50,0,0,0,50,0,0,0,1,23368,0,0,0,0,0,265,265,266,156,62.7638019742819,62.5006511563835,1.21571219308309,0.263149037172493,36.0204856718494,72.1197739195872,64.7793572450429,22.0183864386062,7.34041799727139,5.86183867863532
"267","BDI","BI",705,6386,6386,"nyamashishi",10205,30.6390558,-3.007784,3,"","",2014,NA,NA,50,1,NA,NA,50,0,NA,NA,50,1,NA,NA,1,2180,0.02,0,0.02,0.0373584905660377,0,266,266,265,156,62.7638019742819,62.5006511563835,1.21571219308309,0.263149037172493,36.0204856718494,72.1197739195872,64.7793572450429,22.0183864386062,7.34041799727139,5.86183867863532
"268","BDI","BI",704,6385,6385,"nyamibu",NA,29.3979,-3.894,3,"school","mapping",2014,13,14,50,0,0,0,50,6,0,0,50,1,0,0,1,23359,0,0.12,0.02,0.129811320754717,0,267,267,268,157,56.3229426046818,55.9978843706581,3.3141253503172,0.325055317902402,40.3629312379162,94.5680958366754,3.57053841397623,1.01428091041278,90.9975539081177,4.4176276000541
"269","BDI","BI",704,6385,6385,"nyamibu",10350,29.3979,-3.894,3,"","",2014,NA,NA,50,0,NA,NA,50,7,NA,NA,50,1,NA,NA,1,18536,0,0.14,0.02,0.148301886792453,0,268,268,267,157,56.3229426046818,55.9978843706581,3.3141253503172,0.325055317902402,40.3629312379162,94.5680958366754,3.57053841397623,1.01428091041278,90.9975539081177,4.4176276000541
"27","BDI","BI",714,6411,6411,"ecofo kibumbu ii",NA,29.74636111,-3.532416667,3,"school","mapping",2016,11,13,50,0,0,0,50,7,0,0.04,50,2,0,0,1,23542,0,0.14,0.04,0.164528301886792,8489.9774640221,26,26,26,18,76.6873822644595,72.5262206931175,3.90933957075004,4.16116169702744,19.4032775785626,98.847073914345,55.1269457850602,0.0980181689406534,43.7201318092774,1.05490604313067
"270","BDI","BI",709,6397,6397,"nyamisagara",NA,29.5293,-2.8604,3,"school","mapping",2014,12,14,50,0,0,0,50,23,0,0.14,50,1,0,0,1,23444,0,0.46,0.02,0.444150943396226,3608.69989220595,269,269,269,158,37.0515704361765,36.7977194433232,0.520988614106238,0.253851474358548,62.4274386846407,90.6132179471156,67.6431797589715,0.790233529649366,22.9700393093064,8.59654538141277
"271","BDI","BI",714,6410,6410,"nyamiyaga",NA,29.65252778,-3.569972222,3,"school","mapping",2016,11,14,50,0,0,0,50,9,0,0.02,50,5,0,0,1,23539,0,0.18,0.1,0.247169811320755,3147.57232467581,270,270,270,159,91.2899266376689,90.3996922002406,3.7121592468003,0.890235222188239,4.99791379796001,82.0598135576959,69.647144847728,2.69369195952642,12.4126675239679,15.2464948494196
"272","BDI","BI",708,6394,6394,"nyamugari",NA,29.9994444,-3.5702778,1,"school","mapping",2014,12,14,50,0,0,0,50,5,0,0.02,50,2,0,0.02,1,23427,0,0.1,0.04,0.128301886792453,4292.86232948697,271,271,271,160,17.3824945548226,17.0420068643812,1.69215787499308,0.340486681026263,80.9253470244409,64.6578621636956,42.3867018499063,0.37814705126989,22.2711594808337,34.9639913685
"273","BDI","BI",715,6412,6412,"nyamurenza ii",NA,29.86544444,-2.825444444,3,"school","mapping",2016,12,15,50,0,0,0,50,3,0,0,50,9,0,0,1,23565,0,0.06,0.18,0.21622641509434,3490.30483784524,272,272,272,161,21.1012802631147,20.7285139643951,0.486133026301111,0.372766134430883,78.4125831891012,87.4366876531835,78.1710150040453,0.0367563157103195,9.26567501380209,12.5265549496124
"274","BDI","BI",717,6418,6418,"nyamusasa",NA,30.39111111,-3.675555556,3,"school","mapping",2014,12,16,50,0,0,0,50,2,0,0,50,0,0,0,1,23622,0,0.04,0,0.0377358490566037,0,273,273,38,30,38.4531051942995,37.9945568890013,5.61052252352013,0.458547141270521,55.9363746976011,98.6466540102358,35.3256236297561,0.538119959315889,63.3210309265476,0.815224795139333
"275","BDI","BI",717,6418,6418,"nyamusasa",NA,30.39111111,-3.675555556,3,"school","sentinel site",2009,6,16,372,6,0,0,372,8,0,0,372,3,0,0,1,23620,0.0161290322580645,0.021505376344086,0.0080645161290322,0.0425012809364357,0,274,274,38,30,35.0074265197254,34.6265638585746,4.95719287098112,0.380866238181374,60.0353802669766,98.1469811327781,37.8348797791871,1.02126277859271,60.3121041867209,0.831754981820687
"276","BDI","BI",717,6418,6418,"nyamusasa",NA,30.39111111,-3.675555556,3,"school","sentinel site",2011,5,18,466,76,0,0,466,8,0,0,467,15,0,0,1,23621,0.163090128755365,0.0171673819742489,0.032119914346895,0.192337423633903,0,275,275,38,30,36.2678369173548,35.8666292957993,5.25613456575577,0.40120658170084,58.4760250552848,98.3022333220589,35.7872637916129,0.814799559103844,62.5149741791135,0.882965041764565
"277","BDI","BI",717,6418,6418,"nyamusasa",NA,30.39111111,-3.675555556,3,"school","sentinel site",2008,6,18,300,29,0,0,300,5,0,0,300,7,0,0,1,23619,0.0966666666666666,0.0166666666666666,0.0233333333333333,0.124951607267645,0,276,276,38,30,34.311826101233,33.9337443732764,4.81565330596462,0.378082470050435,60.8725175678051,98.1004564754041,39.7437885025963,1.12546567535724,58.3566689420418,0.774078759642547
"278","BDI","BI",715,6414,6414,"nyaruntana",NA,29.85025,-2.943944444,3,"school","mapping",2016,13,14,50,1,0,0,50,4,0,0,50,12,0,0,1,23589,0.02,0.08,0.24,0.296966037735849,3759.28279483114,277,277,277,162,20.7411930786867,19.3622163256513,31.9130115377987,1.37897638176342,47.3457937997005,81.9330597860502,78.4629701333805,0.0875722489831786,3.47009112104309,17.9793685706462
"279","BDI","BI",709,6398,6398,"nyarurama",NA,29.7223547,-3.1040813,3,"school","mapping",2014,12,14,50,2,0,0,50,7,0,0.04,50,1,0,0,1,23456,0.04,0.14,0.02,0.180105660377359,8369.01791566581,278,278,278,163,62.6616789578812,62.4993938600806,0.436224015180516,0.162288941440724,36.9020922341551,95.0010451817789,91.5673525564127,0.0199796424416642,3.43369326279294,4.97897372603861
"28","BDI","BI",715,6413,6413,"ep kidasha",NA,30.05902778,-2.787166667,3,"school","mapping",2016,12,14,50,0,0,0,50,4,0,0,50,7,0,0,1,23566,0,0.08,0.14,0.196981132075472,5427.6856533871,27,27,27,19,27.4261151618259,25.6505917078042,1.90018953363822,1.77552276946321,70.6736932254003,98.3810534502534,88.2646129356522,0.70875690155406,10.1164391446526,0.91018939169973
"280","BDI","BI",704,6383,6383,"nyundo",NA,29.6708,-3.9627,3,"school","mapping",2014,10,14,50,0,0,0,50,6,0,0,50,1,0,0,1,23296,0,0.12,0.02,0.129811320754717,15812.179139021,279,279,279,164,57.3188704217429,55.9979587474916,0.348779962073485,1.32091095378921,42.332350747676,30.530010960815,12.8608972461393,61.7008242212528,17.6691137292498,7.76916626039192
"281","BDI","BI",703,6381,6381,"q2  1 ngagara",10181,29.3722343,-3.3540881,3,"","",2014,NA,NA,50,0,NA,NA,50,0,NA,NA,50,0,NA,NA,1,18515,0,0,0,0,1417.94295912639,280,280,280,165,90.2195164839173,43.1622218203815,7.82846082639481,47.0572946631404,1.9520238181471,99.7900397674783,0.806021679729676,0.123896091852397,98.9840233075225,0.0860627326550093
"282","BDI","BI",708,6395,6395,"ramba",NA,30.0101,-3.139,1,"school","mapping",2014,12,15,50,0,0,0,50,12,0,0,50,1,0,0,1,23437,0,0.24,0.02,0.240754716981132,0,281,281,282,166,70.0129927346655,69.7869416767795,3.50751478737569,0.226054199283028,26.4794909639064,84.7714300006365,74.6842729783579,6.13313872513844,10.0871614390651,9.09543047908992
"283","BDI","BI",708,6395,6395,"ramba",NA,30.0101,-3.139,1,"school","sentinel site",2008,7,16,300,21,0,0,300,128,0.0033,0.0367,300,19,0,0,1,23434,0.07,0.426666666666667,0.0633333333333333,0.472235220125786,0,282,282,281,166,65.7160774587463,65.5309487989361,2.78396761911712,0.185130736501262,31.4999542538241,82.3198557981892,75.1422388822773,10.3681313489873,7.17761382735469,7.31201335863075
"284","BDI","BI",708,6395,6395,"ramba",NA,30.0101,-3.139,1,"school","sentinel site",2009,6,14,340,3,0,0,340,75,0,0.0176,340,12,0,0,1,23435,0.0088235294117647,0.220588235294118,0.0352941176470588,0.240312570807522,0,283,283,281,166,66.4799374186311,66.2933421598127,2.91162030550369,0.186594936638408,30.6084425219313,82.3748915441298,74.15953331955,9.65521205630066,8.21535901145542,7.9698953271177
"285","BDI","BI",708,6395,6395,"ramba",NA,30.0101,-3.139,1,"school","sentinel site",2011,6,17,463,11,0,0,463,68,0,0.0108,463,9,0,0,1,23436,0.0237580993520518,0.146868250539957,0.019438444924406,0.172949622823718,0,284,284,281,166,67.8170147986222,67.6200857755861,3.18941844254946,0.19693488637785,28.9935640760793,82.9987335108267,73.4487862630278,8.1934643572896,9.54995251305142,8.80779777647354
"286","BDI","BI",708,6395,6395,"ramba",10338,30.0101,-3.139,1,"","",2014,NA,NA,50,0,NA,NA,50,11,NA,NA,50,1,NA,NA,1,18590,0,0.22,0.02,0.222264150943396,0,285,285,281,166,70.0129927346655,69.7869416767795,3.50751478737569,0.226054199283028,26.4794909639064,84.7714300006365,74.6842729783579,6.13313872513844,10.0871614390651,9.09543047908992
"287","BDI","BI",714,6410,6410,"raro",NA,29.66588889,-3.494361111,3,"school","mapping",2016,12,14,50,0,0,0,50,2,0,0,50,2,0,0,1,23541,0,0.04,0.04,0.0739622641509433,7860.55828337451,286,286,286,167,56.9294517903558,40.7648763727147,1.87985002303427,16.1645753532253,41.1906975406717,97.1436312908012,91.223153340476,0.289401471526631,5.92047844600874,2.5669671268946
"288","BDI","BI",709,6397,6397,"remera ii",NA,29.5844311,-2.978015,3,"school","mapping",2014,12,14,50,0,0,0,50,22,0,0,50,4,0,0,1,23445,0,0.44,0.08,0.457358490566038,1891.01690854187,287,287,287,168,4.20048668376647,2.65159415711877,5.66833701783497,1.5488924176052,90.1311777658334,99.9298148315237,79.6200126697733,0.00212246751527287,20.3098034340627,0.0680612281524973
"289","BDI","BI",710,6400,6400,"rubuga ii",NA,30.0408121,-2.3813142,3,"school","mapping",2014,13,14,50,2,0,0,50,2,0,0,50,0,0,0,1,23465,0.04,0.04,0,0.0739622641509433,11293.4080047498,288,288,288,169,35.8356683711886,35.2474802760431,8.85150623416203,0.588189138790022,40.1616870043521,72.3729398540178,62.8943277471019,6.20912536025311,9.47860864881641,6.26679569997022
"29","BDI","BI",715,6413,6413,"ep kigomero",NA,30.02330556,-2.922305556,3,"school","mapping",2016,12,14,50,1,0,0,50,6,0,0.02,50,4,0,0,1,23567,0.02,0.12,0.08,0.194898113207547,3074.82775820632,28,28,28,20,8.37022642742996,7.95581210553476,6.34456138438165,0.414414756624734,85.2852128152088,93.6462913547497,66.0306256132541,0.0199848334955855,27.6156665702326,6.33372428806847
"290","BDI","BI",712,6405,6405,"rubumba",NA,29.6519,-3.3393,3,"school","mapping",2014,12,15,50,0,0,0,50,11,0,0.02,50,0,0,0,1,23507,0,0.22,0,0.207547169811321,3795.08239479511,289,289,289,170,71.1380983496456,69.5096601197045,1.51140300843487,1.62843571433969,27.3505010434307,95.9389425397941,87.4656085259402,0.546380012984814,8.47333577219689,3.51467640053551
"291","BDI","BI",710,6400,6400,"rugasa i",NA,29.9949,-2.4717,3,"school","mapping",2014,13,15,50,0,0,0,50,4,0,0,50,0,0,0,1,23466,0,0.08,0,0.0754716981132075,11293.4080047498,290,290,290,171,33.8778713937807,32.8495972241912,8.29678949926644,1.02827418300092,57.8253385024893,26.9661399481674,24.8215760439594,68.4765962900717,2.14456346865383,4.5572626334807
"292","BDI","BI",701,6376,6376,"rugazi i",NA,29.4092119,-3.2429276,3,"school","mapping",2014,12,15,50,6,0,0,50,2,0,0,50,0,0,0,1,23221,0.12,0.04,0,0.146415094339623,0,291,291,292,172,65.0978032473054,64.2571721713571,2.64389450760975,0.840629118725489,32.258301672334,91.8371590575204,1.14548554581444,0.457577153916764,90.691670838124,7.70526355229669
"293","BDI","BI",701,6376,6376,"rugazi i",10302,29.4092119,-3.2429276,3,"","",2014,NA,NA,50,5,NA,NA,50,3,NA,NA,50,0,NA,NA,1,2146,0.1,0.06,0,0.145283018867924,0,292,292,291,172,65.0978032473054,64.2571721713571,2.64389450760975,0.840629118725489,32.258301672334,91.8371590575204,1.14548554581444,0.457577153916764,90.691670838124,7.70526355229669
"294","BDI","BI",701,6376,6376,"rugenge",NA,30.3947222,-3.5122222,1,"","",2007,10,16,60,31,NA,NA,60,5,NA,NA,60,1,NA,NA,1,31280,0.516666666666667,0.0833333333333333,0.0166666666666666,0.532385569531796,8019.04499724482,293,293,293,173,22.0974030797698,21.84117930856,0.790823647399575,0.256222780392423,77.1117767393723,2.326561286942,0.000187126876701078,93.5619839876671,2.32637415913445,4.11145592651264
"295","BDI","BI",705,6387,6387,"ruhehe",NA,30.783333,-3.116667,1,"school","mapping",2014,13,14,50,7,0,0,50,0,0,0,50,0,0,0,1,23373,0.14,0,0,0.132075471698113,6050.47153847168,294,294,294,174,57.4109823180438,56.8584907508669,2.40347956806359,0.552489974536408,40.1855402175388,73.1381133641857,37.3726671045819,18.2056719978784,35.7654455724115,8.65621617220649
"296","BDI","BI",709,6397,6397,"ruhinga",NA,29.5,-3.666667,1,"school","mapping",2014,12,14,50,0,0,0,50,25,0,0.04,50,2,0,0,1,23446,0,0.5,0.04,0.490566037735849,8910.32073079741,295,295,295,175,47.2428327034948,46.5140228088628,5.8568955208996,0.728809381519485,46.900271239168,28.0157965205161,25.682670040278,15.8594678772636,2.33312528076461,56.1247351241349
"297","BDI","BI",704,6385,6385,"rukinga i",NA,29.44083333,-3.964166667,3,"school","mapping",2014,12,14,50,3,0,0,50,3,0,0,50,3,0,0,1,23360,0.06,0.06,0.06,0.15982641509434,0,296,296,39,31,69.126273988063,64.901558070818,5.3105421756605,4.22471687094825,25.563181716175,97.6333301920059,3.71763490524929,2.19920290206677,93.9156998470596,0.167465004415736
"298","BDI","BI",704,6385,6385,"rukinga i",10351,29.44083333,-3.964166667,3,"","",2014,NA,NA,50,0,NA,NA,50,0,NA,NA,50,0,NA,NA,1,18538,0,0,0,0,0,297,297,39,31,69.126273988063,64.901558070818,5.3105421756605,4.22471687094825,25.563181716175,97.6333301920059,3.71763490524929,2.19920290206677,93.9156998470596,0.167465004415736
"299","BDI","BI",704,6384,6384,"ruko",NA,29.5925594,-3.618012,3,"school","mapping",2014,12,14,50,1,0,0.02,50,7,0,0.02,50,0,0,0,1,23334,0.02,0.14,0,0.148301886792453,0,298,298,299,176,82.1410051573388,81.5224924680041,1.85344738256804,0.618505394743616,16.0055514510682,95.7479340779268,13.8892259995839,0.610513993411696,81.8587024358304,3.64155495130561
"3","BDI","BI",702,6378,6378,"buhina",10243,29.438,-3.4523,1,"","",2014,NA,NA,47,0,NA,NA,47,12,NA,NA,47,9,NA,NA,1,18499,0,0.25531914893617,0.191489361702128,0.375393971488849,8154.86736961873,2,2,2,3,72.4344448089111,72.3621362968061,0.0910003016504707,0.0723105597699635,27.4745543951269,82.9338199126366,36.7021962117043,0.645938239747055,46.2316219477277,16.420242985476
"30","BDI","BI",715,6413,6413,"ep myando",NA,29.99461111,-2.939888889,3,"school","mapping",2016,12,14,50,1,0,0,50,9,0,0,50,8,0,0,1,23568,0.02,0.18,0.16,0.306581132075472,3747.60931263392,29,29,29,21,39.6210355693768,38.2054219751987,6.80697395061893,1.41561318734951,53.57199182272,99.8634280750104,79.2256809774413,0.000305425175473595,20.6377492648129,0.136267161132309
"300","BDI","BI",704,6384,6384,"ruko",NA,29.5925594,-3.618012,3,"school","sentinel site",2008,6,18,268,0,0,0,268,89,0,0.0784,268,10,0,0,1,23330,0,0.332089552238806,0.0373134328358208,0.336803381011025,0,299,299,298,176,79.717464043272,79.198669046125,1.51431484775286,0.518793249509455,18.76822237779,92.8603774751663,15.9298317642392,1.7971298453984,76.9305447427258,5.34249268644133
"301","BDI","BI",704,6384,6384,"ruko",NA,29.5925594,-3.618012,3,"school","sentinel site",2007,6,19,299,2,0,0,299,68,0,0.0301,299,22,0,0,1,23329,0.0066889632107023,0.22742474916388,0.0735785953177257,0.272695513398748,0,300,300,298,176,79.5764345744435,79.0611872770906,1.55407159422723,0.515245812822627,18.8694965381896,92.6329309974161,16.779365406988,2.07057491688723,75.8535656487174,5.2964937343219
"302","BDI","BI",704,6384,6384,"ruko",NA,29.5925594,-3.618012,3,"school","sentinel site",2009,5,20,360,9,0,0,360,73,0,0.0028,360,10,0,0,1,23331,0.025,0.202777777777778,0.0277777777777777,0.230471479734451,0,301,301,298,176,80.1447831986473,79.6224198714869,1.57378580912943,0.522363977792088,18.2814300574612,93.5291196735005,14.5596609640935,1.48415225402367,78.969454583836,4.9867317860787
"303","BDI","BI",704,6384,6384,"ruko",NA,29.5925594,-3.618012,3,"school","sentinel site",2010,5,18,360,3,0,0,360,73,0,0.0389,360,1,0,0,1,23332,0.0083333333333333,0.202777777777778,0.0027777777777777,0.199639007783989,0,302,302,298,176,80.4737955638309,79.9478367216436,1.64459682610455,0.525958119385547,17.8816090822645,93.9746788916803,13.8908877677329,1.25203144872224,80.0837900206778,4.77328964917414
"304","BDI","BI",704,6384,6384,"ruko",NA,29.5925594,-3.618012,3,"school","sentinel site",2011,6,17,331,0,0,0,331,57,0,0.003,331,2,0,0,1,23333,0,0.172205438066465,0.0060422960725075,0.167176620657433,0,303,303,298,176,80.8967104142264,80.3488702718274,1.70726619221527,0.547839401774656,17.3960203325868,94.5331018704016,13.4200663967206,1.03773718738067,81.1130334498876,4.42916343747706
"305","BDI","BI",706,6389,6389,"rurinzi",NA,29.1230716,-2.8878427,2,"school","mapping",2014,13,14,50,1,0,0,50,20,0,0,50,0,0,0,1,23398,0.02,0.4,0,0.388679245283019,0,304,304,82,52,35.6153006447082,28.5611381627603,20.7833127771865,7.05416364172424,43.601384593392,96.9842965658145,0.229795337237446,1.59419355170699,96.7545006270119,1.42151064674737
"306","BDI","BI",710,6401,6401,"rusara",NA,30.3991,-2.4732,3,"school","mapping",2014,13,14,50,5,0,0,50,1,0,0,50,7,0,0,1,23475,0.1,0.02,0.14,0.227811320754717,0,305,305,306,177,6.56028907544788,6.03751479813244,13.1992837500214,0.522774143557726,80.2404278086249,51.3293667435823,50.0888849438457,1.53397880108662,1.2404836569082,47.1366543546654
"307","BDI","BI",710,6401,6401,"rusara",10308,30.3991,-2.4732,3,"","",2014,NA,NA,50,5,NA,NA,50,1,NA,NA,50,6,NA,NA,1,18625,0.1,0.02,0.12,0.211169811320755,0,306,306,305,177,6.56028907544788,6.03751479813244,13.1992837500214,0.522774143557726,80.2404278086249,51.3293667435823,50.0888849438457,1.53397880108662,1.2404836569082,47.1366543546654
"308","BDI","BI",706,6388,6388,"rusororo",NA,29.1230716,-2.8878427,2,"school","mapping",2014,13,14,50,6,0,0,50,5,0,0,50,0,0,0,1,23393,0.12,0.1,0,0.19622641509434,0,307,307,82,52,35.6153006447082,28.5611381627603,20.7833127771865,7.05416364172424,43.601384593392,96.9842965658145,0.229795337237446,1.59419355170699,96.7545006270119,1.42151064674737
"309","BDI","BI",706,6388,6388,"rusororo",10213,29.1230716,-2.8878427,2,"","",2014,NA,NA,50,5,NA,NA,50,5,NA,NA,50,0,NA,NA,1,2188,0.1,0.1,0,0.179245283018868,0,308,308,82,52,35.6153006447082,28.5611381627603,20.7833127771865,7.05416364172424,43.601384593392,96.9842965658145,0.229795337237446,1.59419355170699,96.7545006270119,1.42151064674737
"31","BDI","BI",704,6385,6385,"ep kizuga",NA,29.54527778,-3.760277778,3,"school","sentinel site",2017,6,15,120,0,0,0,120,16,0,0,120,0,0,0,1,23340,0,0.133333333333333,0,0.125786163522012,0,30,30,139,22,31.1776284915129,30.6821065859504,7.46708236758946,0.495523134796469,61.3552896993202,96.7414490177711,64.8572033689483,0.070420418865951,31.8842454408805,3.18813122162304
"310","BDI","BI",714,6411,6411,"rutega",NA,29.67741667,-3.608694444,3,"school","mapping",2016,11,14,48,0,0,0,48,0,0,0,48,0,0,0,1,23552,0,0,0,0,5131.29389701556,309,309,309,178,93.043725405635,88.0762622375845,2.82938953124157,4.96746559697348,4.12688394297035,87.7692247218971,35.5046707201328,0.648969220000774,52.2645533196009,11.5818061629358
"311","BDI","BI",705,6386,6386,"rutoke i",10206,30.6469444,-3.1752778,1,"","",2014,NA,NA,50,7,NA,NA,50,9,NA,NA,50,0,NA,NA,1,18542,0.14,0.18,0,0.27811320754717,5764.4048764834,310,310,310,179,58.3384328692417,45.9438986538493,0.224602482365094,12.3945339270307,41.4369652659513,84.4947470449653,51.1060956101991,1.63202780115259,33.3886574786776,13.8732216091656
"312","BDI","BI",717,6419,6419,"ruvyagira",NA,29.7105556,-4.3113889,1,"school","mapping",2014,12,15,50,6,0,0,50,16,0.02,0.04,50,9,0,0,1,23626,0.12,0.32,0.18,0.480483018867924,3431.51109040611,311,311,311,180,72.8952078656365,72.5911675965992,0.76479205555024,0.30403922165987,26.3399994792353,98.5655198220906,15.2293472798473,0.00281911776069225,83.3361688413652,1.43166087681415
"313","BDI","BI",717,6419,6419,"ruyigi i",NA,30.2483881,-3.4750027,3,"school","mapping",2014,12,16,50,0,0,0,50,2,0,0,50,0,0,0,1,23627,0,0.04,0,0.0377358490566037,0,312,312,102,63,73.5589951540574,62.0186608154303,3.66428532162151,11.5403337696304,22.7767205109073,61.7157359128903,4.82726552240206,4.15707158350394,56.8884726262949,34.1271916772248
"314","BDI","BI",715,6413,6413,"ruyumpu",NA,29.94705,-2.79925,3,"","",2007,10,16,60,12,NA,NA,60,2,NA,NA,60,13,NA,NA,1,31279,0.2,0.0333333333333333,0.216666666666667,0.371907756813417,0,313,313,314,181,19.525158498095,19.1494961654557,7.60624388100659,0.375663217831022,72.8685981930951,90.1442838871834,86.3418884625223,0.0768449668278348,3.80239337984046,9.77887267410427
"315","BDI","BI",715,6413,6413,"ruyumpu",NA,29.94705,-2.79925,3,"school","mapping",2014,13,14,50,7,0,0,50,17,0,0.02,50,11,0,0,1,23574,0.14,0.34,0.22,0.525728301886793,0,314,314,313,181,21.0464981031364,20.589767705835,9.27943863973608,0.456729363898091,69.674063610971,92.5218363428355,86.7222950879209,0.0163949060760131,5.79954317997083,7.46176952678968
"316","BDI","BI",701,6375,6375,"ruzibira",NA,29.41805556,-2.984722222,3,"school","mapping",2014,12,15,50,6,0,0,50,2,0,0,50,2,0,0,1,23210,0.12,0.04,0.04,0.178294339622641,0,315,315,40,32,33.5669454633401,33.3156268321193,0.308333611741244,0.251318928801908,66.1247183772068,63.0639300375546,49.8248306255211,2.16846046466191,13.2390990955652,34.7676109585204
"317","BDI","BI",701,6375,6375,"ruzibira",NA,29.41805556,-2.984722222,3,"school","sentinel site",2009,6,18,466,73,0,0,466,85,0,0.0021,465,55,0,0,1,23207,0.156652360515021,0.182403433476395,0.118279569892473,0.369846956551493,0,316,316,40,32,29.6244375049788,29.4176888613351,0.213988021086777,0.20674979149255,70.1615720798891,54.1558046379024,43.1378775771007,5.71359961711155,11.017925249477,40.1305962132957
"318","BDI","BI",701,6375,6375,"ruzibira",NA,29.41805556,-2.984722222,3,"school","sentinel site",2011,6,19,400,38,0,0,400,34,0,0.0025,400,13,0,0,1,23209,0.095,0.085,0.0325,0.187582488207547,0,317,317,40,32,31.0630342730939,30.8445956118589,0.25213267614542,0.21843830514783,68.6848328599889,56.5806685143598,43.9692299095236,3.89412953305648,12.6114399980627,39.525200834502
"319","BDI","BI",701,6375,6375,"ruzibira",NA,29.41805556,-2.984722222,3,"school","sentinel site",2008,6,21,281,58,0,0,281,23,0,0.0036,281,4,0,0,1,23206,0.206405693950178,0.0818505338078291,0.0142348754448398,0.265786684324975,0,318,318,40,32,28.8314928018983,28.626431468978,0.197283488918875,0.205060637089829,70.9712229145225,53.6229906218063,43.879047424619,6.93548909945892,9.74394390938971,39.441518774628
"32","BDI","BI",702,6377,6377,"ep maramvya",NA,29.34833333,-3.296666667,3,"school","sentinel site",2017,6,15,120,2,0,0,120,1,0,0,120,4,0,0,1,23226,0.0166666666666666,0.0083333333333333,0.0333333333333333,0.0541186233403214,5183.68560190549,31,31,31,23,87.9411013233434,84.7857752967546,0.574343217080327,3.15532365247133,11.4845555111429,99.9249998522671,1.64356361338594,0.0335787783474496,98.2814345690234,0.0414227266408129
"320","BDI","BI",701,6375,6375,"ruzibira",NA,29.41805556,-2.984722222,3,"school","sentinel site",2010,7,18,454,50,0,0,454,18,0,0,454,4,0,0,1,23208,0.110132158590308,0.039647577092511,0.0088105726872246,0.144285529248681,0,319,319,40,32,30.2469825729364,30.0385293480936,0.232600586819037,0.208453436833148,69.5204161267882,54.9328027844854,43.1228740092069,4.71905268644557,11.8099275361652,40.3481462494243
"321","BDI","BI",701,6375,6375,"ruzibira",NA,29.41805556,-2.984722222,3,"school","sentinel site",2007,6,17,296,90,0,0,295,10,0,0,296,1,0,0,1,23205,0.304054054054054,0.0338983050847457,0.0033783783783783,0.311242368069242,0,320,320,40,32,28.5730972017357,28.3697117321553,0.202896716685906,0.203385827799743,71.2240045525566,53.9544889778869,44.8048629681464,8.43834883063165,9.14962408260641,37.6071615215852
"322","BDI","BI",711,6403,6403,"rweza",NA,29.8677778,-2.905,1,"school","mapping",2014,12,16,50,5,0,0,50,0,0,0,50,2,0,0,1,23490,0.1,0,0.04,0.128301886792453,0,321,321,322,182,36.1156754621891,34.8846919979703,7.82155666275567,1.23098391722998,56.062769715372,92.6254269426859,56.7168796850956,0.0273134759804012,35.9085495878475,7.34725836079076
"323","BDI","BI",711,6403,6403,"rweza",10290,29.8677778,-2.905,1,"","",2014,NA,NA,50,4,NA,NA,50,0,NA,NA,50,2,NA,NA,1,2221,0.08,0,0.04,0.110188679245283,0,322,322,321,182,36.1156754621891,34.8846919979703,7.82155666275567,1.23098391722998,56.062769715372,92.6254269426859,56.7168796850956,0.0273134759804012,35.9085495878475,7.34725836079076
"324","BDI","BI",715,6413,6413,"rwimbogo",NA,30.01280556,-2.802666667,3,"school","mapping",2016,13,14,50,2,0,0,50,14,0,0,50,6,0,0,1,23575,0.04,0.28,0.12,0.369569811320755,5427.6856533871,323,323,323,183,10.7855505934752,10.3775005430393,1.09639432917096,0.40804955242334,88.1180578382051,93.6978225621547,86.442599482219,0.340982351736075,7.25522580751606,5.9611937579824
"325","BDI","BI",709,6396,6396,"sakinyinya",NA,29.7569,-3.0094,3,"school","mapping",2014,12,14,50,0,0,0,50,15,0,0,50,1,0,0,1,23442,0,0.3,0.02,0.29622641509434,7271.96675093473,324,324,324,184,48.7146917860264,48.4841006539782,1.26459406685206,0.230590516110094,50.0207133463955,99.2932200468963,73.2692838424359,0.00101714448293543,26.0239371187852,0.705763310305709
"326","BDI","BI",711,6404,6404,"vugizo",NA,29.70861111,-4.173888889,3,"school","sentinel site",2008,6,16,300,37,0,0,300,35,0,0.0067,300,23,0,0,1,23500,0.123333333333333,0.116666666666667,0.0766666666666666,0.268849930118798,0,325,325,326,185,64.4720072001712,64.3378739965853,0.111594228399923,0.134131424429171,35.4163985100433,71.7124679953644,59.6484559001938,2.02756983572008,12.0640131880708,26.2599608501256
"327","BDI","BI",711,6404,6404,"vugizo",NA,29.70861111,-4.173888889,3,"school","sentinel site",2011,5,20,502,17,0,0,502,28,0,0,502,9,0,0,1,23502,0.0338645418326693,0.0557768924302788,0.0179282868525896,0.0982147253448127,0,326,326,325,185,66.2111628100939,66.0687716980344,0.139077500783162,0.142390507735609,33.6497590197859,73.6663714641257,58.0426401206444,1.23275831280663,15.6237311357681,25.1008715011351
"328","BDI","BI",711,6404,6404,"vugizo",NA,29.70861111,-4.173888889,3,"school","sentinel site",2009,5,16,329,30,0,0,329,16,0,0,329,16,0,0,1,23501,0.0911854103343465,0.0486322188449848,0.0486322188449848,0.167388037360425,0,327,327,325,185,65.0987679768262,64.963609361173,0.119971648996182,0.135159924798493,34.7812600941678,71.9916309858586,58.3482965229753,1.72766534939259,13.6433330666172,26.2807037139837
"329","BDI","BI",713,6408,6408,"vumasi",NA,30.4070345,-2.4125486,3,"school","mapping",2014,13,14,50,4,0,0,50,0,0,0,50,5,0,0.02,1,23522,0.08,0,0.1,0.162264150943396,0,328,328,329,186,21.8559054369175,21.5595046629739,6.98178637541884,0.296400847752644,71.1623114100309,52.3844424044489,49.5356143394911,39.0548550272092,2.84882673213221,8.56070090517713
"33","BDI","BI",706,6388,6388,"ep mirombero",NA,29.30416667,-2.971666667,3,"school","sentinel site",2017,6,15,120,0,0,0,120,1,0,0,120,1,0,0,1,23376,0,0.0083333333333333,0.0083333333333333,0.0156577568134171,5404.17338126016,32,32,32,24,68.0264376763758,67.6313611564289,2.50832954311119,0.39507548469059,29.4652332485309,91.7294983391747,73.7600473506347,0.782345685153792,17.9694473069897,7.48815822977136
"330","BDI","BI",713,6408,6408,"vumasi",10239,30.4070345,-2.4125486,3,"","",2014,NA,NA,50,4,NA,NA,50,0,NA,NA,50,6,NA,NA,1,2235,0.08,0,0.12,0.179622641509434,0,329,329,328,186,21.8559054369175,21.5595046629739,6.98178637541884,0.296400847752644,71.1623114100309,52.3844424044489,49.5356143394911,39.0548550272092,2.84882673213221,8.56070090517713
"331","BDI","BI",710,6400,6400,"yaranda",NA,30.11166667,-2.517222222,3,"school","mapping",2014,12,14,50,19,0,0,50,0,0,0,50,0,0,0,1,23470,0.38,0,0,0.358490566037736,0,330,330,331,187,12.9478489297963,12.5178169597297,2.93819416740543,0.430031663792397,42.7835506503511,51.951666886668,42.8953449987727,4.34798784347433,9.05632025388474,2.36994250844424
"332","BDI","BI",710,6400,6400,"yaranda",NA,30.11166667,-2.517222222,3,"school","sentinel site",2011,6,19,398,34,0,0,398,9,0,0,398,9,0,0,1,23469,0.0854271356783919,0.0226130653266331,0.0226130653266331,0.119171754751226,0,331,331,330,187,11.8744221174629,11.4997595068378,2.54394552134502,0.374661973958481,44.2512306196082,50.4891977476709,41.7696495089717,5.83457445329474,8.71955300707078,2.34582076562807
"333","BDI","BI",710,6400,6400,"yaranda",NA,30.11166667,-2.517222222,3,"school","sentinel site",2008,6,19,300,54,0,0,300,6,0,0.0033,299,17,0,0,1,23467,0.18,0.02,0.0568561872909698,0.228386445383984,0,332,332,330,187,10.9637767779134,10.611520364875,2.12789516225142,0.352255805937256,45.5779245014416,49.6509603002053,42.4764714244154,6.82266324706772,7.17448810857073,2.19597330954666
"334","BDI","BI",710,6400,6400,"yaranda",NA,30.11166667,-2.517222222,3,"school","sentinel site",2009,6,20,273,28,0,0,273,0,0,0,273,10,0,0,1,23468,0.102564102564103,0,0.0366300366300366,0.127770955056877,0,333,333,330,187,11.2809697507176,10.92594697554,2.25684031663979,0.355022637480659,45.1317840773819,49.8366426531968,41.9728928245464,6.57565370210015,7.86374933916372,2.25729951463463
"34","BDI","BI",704,6385,6385,"ep mudende",NA,29.51333333,-3.891388889,3,"school","sentinel site",2017,6,15,120,0,0,0,120,2,0,0,120,1,0,0,1,23341,0,0.0166666666666666,0.0083333333333333,0.0234538784067085,0,33,33,181,25,71.2976073773076,71.0782961641713,0.836604022762076,0.219315721159534,27.8657873685922,52.0799110166516,46.2833493857424,1.63713707691339,5.79656095603633,46.2829514397928
"35","BDI","BI",711,6403,6403,"ep mugeni",NA,30.05777778,-4.119166667,3,"school","sentinel site",2017,6,14,120,1,0,0,120,3,0,0,120,0,0,0,1,23482,0.0083333333333333,0.025,0,0.03125,420.504032085548,34,34,34,26,59.4959202028955,58.9546031335454,4.46763284820965,0.541314399467552,36.0364476613903,51.6003757049156,21.1713816104985,10.8219470122924,30.4289956513315,37.5776748892412
"36","BDI","BI",706,6388,6388,"ep munyika",NA,29.12083333,-2.831111111,3,"school","sentinel site",2017,6,15,120,0,0,0,120,0,0,0,120,0,0,0,1,23377,0,0,0,0,6328.11212139044,35,35,35,27,40.9795727847086,33.7924549697742,10.2425643712808,7.18711721885599,48.7778646259842,97.8635015513001,3.05688914340498,0.164567438207296,94.8066122787573,1.97193125638989
"37","BDI","BI",701,6376,6376,"ep musenyi",NA,29.40444444,-3.195833333,3,"school","sentinel site",2017,6,14,120,0,0,0,120,0,0,0,120,0,0,0,1,23211,0,0,0,0,0,36,36,234,28,77.3174242356463,76.314735625791,3.27611155019739,1.00269530719943,19.4064598686624,93.4701458318502,1.36795293343772,0.606233696379295,92.1021917328662,5.92362428564388
"38","BDI","BI",704,6385,6385,"ep nyamibu",NA,29.39722222,-3.896944444,3,"school","sentinel site",2017,5,15,120,6,0,0,120,2,0,0,120,1,0,0,1,23342,0.05,0.0166666666666666,0.0083333333333333,0.0694509958071278,337.08556031944,37,37,37,29,89.3730543566467,88.5724820186625,7.93627072101836,0.800575165976844,50.0268114696982,141.719623396362,7.87764783583889,1.70922492721291,133.841977085235,3.90728800258767
"39","BDI","BI",717,6418,6418,"ep nyamusasa",NA,30.39111111,-3.675555556,3,"school","sentinel site",2017,5,14,120,5,0,0,120,3,0,0,120,2,0,0,1,23614,0.0416666666666666,0.025,0.0166666666666666,0.0766018081761006,0,38,38,273,30,40.5036613778537,40.0172763744626,6.0296287405915,0.486385640489846,53.466710061896,99.0060809018182,36.1020774043964,0.329835905027074,62.9040023741519,0.664084303743797
