"Row.names","iso3","iso2","admin1_id","admin2_id","iu_id","location","site_id","longitude","latitude","georeliability","location_type","survey_type","year","age_start","age_end","hk_examined","hk_positive","hk_perc_highinfection","hk_perc_moderateinfection","asc_examined","asc_positive","asc_perc_highinfection","asc_perc_moderateinfection","tt_examined","tt_positive","tt_perc_highinfection","tt_perc_moderateinfection","quality","sn","hk_prevalence","asc_prevalence","tt_prevalence","sth_prevalence","shortest","id","src","dst","identifier","improved_sewer","unpiped_sewer","surface_sewer","piped_sewer","unimproved_sewer","improved_water","unpiped_water","surface_water","piped_water","unimproved_water"
"1","TZA","TZ",4797,46531,46531,"abainano",NA,34.2848917,-1.3877117,3,"school","mapping",2017,11,15,30,0,0,0,30,1,0,0,30,0,0,0,1,37145,0,0.0333333333333333,0,0.0314465408805031,4366.46172346526,0,0,0,1,25.1971950034121,25.1324043517687,37.9401613063739,0.0647911463556913,36.8626423385991,90.3816098043175,4.45386577291928,6.55172344987758,85.9277431102745,3.06666944898414
"10","TZA","TZ",4797,46631,46631,"balili a",NA,33.872115,-2.0317217,3,"school","mapping",2017,11,15,30,0,0,0,30,0,0,0,30,0,0,0,1,36884,0,0,0,0,0.557599687959048,9,9,8,7,43.3298150197069,42.8717668426104,5.23252878891971,0.458048853828452,51.4376571662001,96.0889812867824,54.8520342209103,1.90172047830909,41.2369491001264,2.0092997844169
"100","TZA","TZ",4806,46591,46591,"bushola",NA,33.4934433,-3.5014017,3,"school","sentinel site",2018,9,15,60,1,0,0,60,0,0,0,60,0,0,0,1,37228,0.0166666666666666,0,0,0.0157232704402515,3379.57902371984,99,99,99,71,NA,NA,NA,NA,NA,NA,NA,NA,NA,NA
"101","TZA","TZ",4806,46591,46591,"bushoma",59802,33.229,-3.66998,3,"","",2004,NA,NA,61,22,NA,NA,61,0,NA,NA,61,0,NA,NA,2,15895,0.360655737704918,0,0,0.340241261985772,16452.3965602563,100,100,100,72,62.2259775843485,62.1792110557052,10.621553750156,0.0467610283189476,27.1524722160596,42.0886556109915,18.8298089149749,21.9982711115826,23.2588458903993,35.9130721770411
"102","TZA","TZ",4797,46525,46525,"busore",NA,34.0736933,-1.9304883,3,"school","mapping",2017,11,15,30,2,0,0,30,0,0,0,30,0,0,0,1,36845,0.0666666666666666,0,0,0.0628930817610062,0.368870907458628,101,101,788,73,27.0809524182411,27.0062737409053,8.58079174979827,0.0746785054088819,64.338256331017,62.7445871200643,25.4007454336727,12.5106926739567,37.3438395317906,24.7447218268302
"103","TZA","TZ",4797,46527,46527,"bussekera",NA,33.3120317,-1.9112217,3,"school","mapping",2017,11,15,30,0,0,0,30,0,0,0,30,0,0,0,1,36945,0,0,0,0,0.192170467463068,102,102,64,45,14.6672458648682,14.653359413147,7.34363889694214,0.0138858510181308,27.9891166687012,26.9629535675049,11.0799255371094,10.8518724441528,15.8830280303955,12.185173034668
"104","TZA","TZ",4797,46527,46527,"busungu",NA,33.3993217,-1.8362867,3,"school","mapping",2017,11,15,29,2,0,0,29,0,0,0,29,0,0,0,1,36946,0.0689655172413793,0,0,0.0650618087182823,0.192170217976913,103,103,71,52,37.1869182087722,37.1572320176453,5.25505756264348,0.0296842173741271,64.6431146342753,23.5279233386644,10.0490513722352,81.7446279082756,13.478872007566,1.81253756209428
"105","TZA","TZ",4793,46502,46502,"busunzu",NA,30.6003133,-3.9610183,3,"school","sentinel site",2018,10,15,60,0,0,0,60,1,0,0,60,0,0,0,1,36828,0,0.0166666666666666,0,0.0157232704402515,0,104,104,105,74,NA,NA,NA,NA,NA,NA,NA,NA,NA,NA
"106","TZA","TZ",4793,46502,46502,"busunzu",NA,30.6003133,-3.9610183,3,"school","sentinel site",2016,8,16,60,0,0,0,60,1,0,0,60,0,0,0,1,36824,0,0.0166666666666666,0,0.0157232704402515,0,105,105,104,74,39.9601777909478,39.8371905470159,2.49977907139821,0.122987043210633,57.5400449897898,43.8553480242412,13.4981358731385,42.9871841319291,30.3572122183506,13.1574681686826
"107","TZA","TZ",4793,46502,46502,"busunzu",NA,30.6003133,-3.9610183,3,"school","sentinel site",2017,9,14,60,0,0,0,60,0,0,0,60,0,0,0,1,36825,0,0,0,0,0,106,106,104,74,42.0392604490477,41.984187435587,2.10455917161834,0.055071792275404,55.8561818822909,47.3856605841495,14.6173681728508,41.0160111062206,32.7682923027702,11.5983298880024
"108","TZA","TZ",4797,46526,46526,"buswahili",NA,34.19166,-1.612183,3,"ward","mapping",2018,NA,NA,30,0,0,NA,30,0,0,NA,30,0,0,NA,1,22929,0,0,0,0,0.368870386227885,107,107,415,75,NA,NA,NA,NA,NA,NA,NA,NA,NA,NA
"109","TZA","TZ",4797,46631,46631,"butakale",NA,33.8408367,-2.051545,3,"school","mapping",2017,10,15,30,0,0,0,30,0,0,0,30,0,0,0,1,36887,0,0,0,0,4123.02306617298,108,108,108,76,6.63604863470573,6.33910316268663,3.13360639654537,0.296945687275202,90.2303468747819,98.4088177074318,38.2368027792305,0.381769347229316,60.1720143878472,1.20941277535387
"11","TZA","TZ",4797,46631,46631,"balili b",NA,33.87247,-2.0316483,3,"school","mapping",2017,10,15,31,0,0,0,31,0,0,0,31,0,0,0,1,36885,0,0,0,0,39.8173068073385,10,10,10,8,43.7742305898784,43.3171185815015,5.2747891124783,0.457112693112725,50.9509812265603,96.0770907621776,55.083950005368,1.91617789586349,40.9931427763693,2.00673292965039
"110","TZA","TZ",4797,46527,46527,"butata b",NA,33.4260317,-1.8286233,3,"school","mapping",2017,11,15,30,0,0,0,30,0,0,0,30,0,0,0,1,36947,0,0,0,0,3093.42406174808,109,109,109,77,31.5014083138011,31.4727552122694,2.30348133410644,0.0286503581325458,54.8880406717241,6.48804398132173,3.00303607356647,80.7718308022232,3.4850080043769,1.43305366051802
"111","TZA","TZ",4797,46526,46526,"butiama",NA,33.92113,-1.768567,3,"ward","mapping",2018,NA,NA,30,2,0,NA,30,0,0,NA,30,0,0,NA,1,22932,0.0666666666666666,0,0,0.0628930817610062,0,110,110,111,78,NA,NA,NA,NA,NA,NA,NA,NA,NA,NA
"112","TZA","TZ",4797,46526,46526,"butiama",NA,33.92113,-1.768567,3,"ward","mapping",2018,NA,NA,29,1,0,NA,29,0,0,NA,29,0,0,NA,1,22931,0.0344827586206896,0,0,0.0325309043591411,0,111,111,110,78,NA,NA,NA,NA,NA,NA,NA,NA,NA,NA
"113","TZA","TZ",4797,46631,46631,"butimba",NA,33.62526,-2.140518,3,"ward","mapping",2018,NA,NA,30,0,0,NA,30,0,0,NA,30,0,0,NA,1,22861,0,0,0,0,0.0334191654401366,112,112,68,49,NA,NA,NA,NA,NA,NA,NA,NA,NA,NA
"114","TZA","TZ",4797,46526,46526,"butuguri",NA,33.96207,-1.663873,3,"ward","mapping",2018,NA,NA,30,1,0,NA,30,0,0,NA,30,0,0,NA,1,22933,0.0333333333333333,0,0,0.0314465408805031,0,113,113,114,79,NA,NA,NA,NA,NA,NA,NA,NA,NA,NA
"115","TZA","TZ",4797,46526,46526,"butuguri",NA,33.96207,-1.663873,3,"ward","mapping",2018,NA,NA,30,0,0,NA,30,0,0,NA,30,0,0,NA,1,22934,0,0,0,0,0,114,114,113,79,NA,NA,NA,NA,NA,NA,NA,NA,NA,NA
"116","TZA","TZ",4797,46526,46526,"buturu",NA,33.9211267,-1.7685667,3,"school","mapping",2017,11,15,29,1,0,0,29,0,0,0,29,0,0,0,1,36909,0.0344827586206896,0,0,0.0325309043591411,0.368870629358761,115,115,110,78,29.5819400580836,29.4915201964,12.2119907459008,0.0904201072464819,58.206067184095,63.1797928240631,36.7294977582143,10.4455653404447,26.4502929612028,26.3746437283201
"117","TZA","TZ",4797,46526,46526,"buzahya",NA,33.8846083,-1.7299967,3,"school","mapping",2017,11,15,30,0,0,0,30,0,0,0,30,0,0,0,1,36910,0,0,0,0,0.192169883094291,116,116,85,61,50.3365935933288,50.2633727649526,7.52580240492143,0.0732193532722975,42.1376047585536,73.0841913784834,62.2716534542991,5.43518335797013,10.8125386373781,21.4806217975666
"118","TZA","TZ",4797,46527,46527,"bwai",NA,33.560385,-1.68934,3,"school","sentinel site",2017,8,14,60,2,0,0,60,0,0,0,60,0,0,0,1,36949,0.0333333333333333,0,0,0.0314465408805031,0,117,117,118,80,NA,NA,NA,NA,NA,NA,NA,NA,NA,NA
"119","TZA","TZ",4797,46527,46527,"bwai",NA,33.560385,-1.68934,3,"school","sentinel site",2016,7,13,60,0,0,0,60,0,0,0,60,0,0,0,1,36948,0,0,0,0,0,118,118,117,80,NA,NA,NA,NA,NA,NA,NA,NA,NA,NA
"12","TZA","TZ",4797,46531,46531,"bamagi vision",NA,34.646875,-1.3946567,3,"school","mapping",2017,10,15,30,0,0,0,30,0,0,0,30,0,0,0,1,37146,0,0,0,0,0.557599022114116,11,11,619,9,72.5175970344667,72.3965247547241,4.88033271200738,0.121079020663784,22.6020660386504,10.6928209380439,9.6396984671309,3.36086746399298,1.05312273834778,85.9463057168665
"120","TZA","TZ",4797,46527,46527,"bwai a",NA,33.560385,-1.68934,3,"school","sentinel site",2018,9,15,60,0,0,0,60,0,0,0,60,0,0,0,1,36950,0,0,0,0,0,119,119,117,80,NA,NA,NA,NA,NA,NA,NA,NA,NA,NA
"121","TZA","TZ",4797,46527,46527,"bwai b",NA,33.5619283,-1.68946,3,"school","mapping",2017,11,15,30,0,0,0,30,0,0,0,30,0,0,0,1,36951,0,0,0,0,172.318379836763,120,120,120,81,NA,NA,NA,NA,NA,NA,NA,NA,NA,NA
"122","TZA","TZ",4797,46527,46527,"bwasi",NA,33.32435,-1.853517,3,"ward","mapping",2018,NA,NA,30,1,0,NA,30,0,0,NA,30,0,0,NA,1,22966,0.0333333333333333,0,0,0.0314465408805031,0,121,121,122,82,NA,NA,NA,NA,NA,NA,NA,NA,NA,NA
"123","TZA","TZ",4797,46527,46527,"bwasi",NA,33.32435,-1.853517,3,"ward","mapping",2018,NA,NA,30,0,0,NA,30,0,0,NA,30,0,0,NA,1,22967,0,0,0,0,0,122,122,121,82,NA,NA,NA,NA,NA,NA,NA,NA,NA,NA
"124","TZA","TZ",4797,46527,46527,"bwenda b",NA,33.442625,-1.8644317,3,"school","mapping",2017,11,15,30,0,0,0,30,2,0,0,30,0,0,0,1,36952,0,0.0666666666666666,0,0.0628930817610062,0.557599489093124,123,123,892,83,25.0399150345445,25.0155137181267,1.45937658668254,0.024400660262029,48.1338006535829,2.86267938700965,1.3113849339102,71.7700167113027,1.55129450184276,0.000397065073034321
"125","TZA","TZ",4789,46477,46477,"bwera",59565,31.682199,-2.9888101,3,"","",2004,NA,NA,60,45,NA,NA,60,1,NA,NA,60,1,NA,NA,2,15644,0.75,0.0166666666666666,0.0166666666666666,0.715343291404612,6128.67228365298,124,124,124,84,32.6170705190152,32.4681314874393,28.4861898533503,0.148939989731359,38.8967392425955,39.8719845329904,18.819426582998,22.6776335094695,21.052558142512,37.4503812726618
"126","TZA","TZ",4797,46528,46528,"bweri",NA,33.81339,-1.549167,3,"ward","mapping",2018,NA,NA,27,0,0,NA,27,3,0,NA,27,0,0,NA,1,23002,0,0.111111111111111,0,0.10482180293501,0,125,125,126,85,NA,NA,NA,NA,NA,NA,NA,NA,NA,NA
"127","TZA","TZ",4797,46528,46528,"bweri",NA,33.81339,-1.549167,3,"school","mapping",2017,9,15,27,0,0,0,27,3,0,0,27,0,0,0,1,36997,0,0.111111111111111,0,0.10482180293501,0,126,126,125,85,23.2234579161271,23.2021646753611,14.7639665078591,0.0212956415349705,30.0103572770815,65.5613509712477,1.11700406401767,0.6975901513615,64.4443456645344,1.73884169056785
"128","TZA","TZ",4797,46528,46528,"bweri",NA,33.81339,-1.549167,3,"ward","mapping",2018,NA,NA,30,0,0,NA,30,3,0,NA,30,0,0,NA,1,23001,0,0.1,0,0.0943396226415094,0,127,127,125,85,NA,NA,NA,NA,NA,NA,NA,NA,NA,NA
"129","TZA","TZ",4797,46528,46528,"bweri",NA,33.81339,-1.549167,3,"ward","mapping",2018,NA,NA,30,0,0,NA,30,1,0,NA,30,0,0,NA,1,23000,0,0.0333333333333333,0,0.0314465408805031,0,128,128,125,85,NA,NA,NA,NA,NA,NA,NA,NA,NA,NA
"13","TZA","TZ",4797,46529,46529,"baraki",NA,33.96552,-1.369015,3,"ward","mapping",2018,NA,NA,30,0,0,NA,30,0,0,NA,30,0,0,NA,1,23023,0,0,0,0,0.189243133645505,12,12,945,10,NA,NA,NA,NA,NA,NA,NA,NA,NA,NA
"130","TZA","TZ",4797,46528,46528,"bweri",NA,33.81339,-1.549167,3,"school","sentinel site",2018,9,15,57,0,0,0,57,4,0,0,57,0,0,0,1,36996,0,0.0701754385964912,0,0.0662032439589539,0,129,129,125,85,NA,NA,NA,NA,NA,NA,NA,NA,NA,NA
"131","TZA","TZ",4797,46528,46528,"bweri",NA,33.81339,-1.549167,3,"school","sentinel site",2017,8,13,60,0,0,0,60,0,0,0,60,0,0,0,1,36995,0,0,0,0,0,130,130,125,85,23.2234579161271,23.2021646753611,14.7639665078591,0.0212956415349705,30.0103572770815,65.5613509712477,1.11700406401767,0.6975901513615,64.4443456645344,1.73884169056785
"132","TZA","TZ",4797,46528,46528,"bweri",NA,33.81339,-1.549167,3,"school","sentinel site",2016,7,13,55,0,0,0,55,0,0,0,55,0,0,0,1,36994,0,0,0,0,0,131,131,125,85,21.8045785219274,21.7568887535497,16.8134707010887,0.0476882845402809,29.3797363146568,64.7714011143837,1.17167599736128,0.912868750460515,63.5997250240935,2.31351200851645
"133","TZA","TZ",4797,46526,46526,"bwiregi",NA,34.06585,-1.588788,3,"ward","mapping",2018,NA,NA,30,1,0,NA,30,0,0,NA,30,0,0,NA,1,22936,0.0333333333333333,0,0,0.0314465408805031,0,132,132,133,86,NA,NA,NA,NA,NA,NA,NA,NA,NA,NA
"134","TZA","TZ",4797,46526,46526,"bwiregi",NA,34.06585,-1.588788,3,"ward","mapping",2018,NA,NA,30,0,0,NA,30,0,0,NA,30,0,0,NA,1,22935,0,0,0,0,0,133,133,132,86,NA,NA,NA,NA,NA,NA,NA,NA,NA,NA
"135","TZA","TZ",4797,46530,46530,"bwitengi",NA,34.66069,-1.8950183,3,"school","mapping",2017,10,14,30,0,0,0,30,0,0,0,30,0,0,0,1,37081,0,0,0,0,5077.13592124771,134,134,134,87,51.6362758955125,51.6096941066885,0.588296563933493,0.0265848466868677,47.7754292732058,59.9811324485588,25.5901839967938,13.5009014720827,34.3909503217474,26.5179639623243
"136","TZA","TZ",4810,46619,46619,"bwiti",59740,38.816667,-4.783333,1,"","",1996,NA,NA,45,20,NA,NA,45,6,NA,NA,45,10,NA,NA,3,16017,0.444444444444444,0.133333333333333,0.222222222222222,0.590107927634133,5145.25812664042,135,135,135,88,NA,NA,NA,NA,NA,NA,NA,NA,NA,NA
"137","TZA","TZ",4791,46489,46489,"chabuhora",59613,30.9751,-1.81133,3,"","",2004,NA,NA,60,50,NA,NA,60,0,NA,NA,60,0,NA,NA,2,15686,0.833333333333333,0,0,0.786163522012579,12853.9185213713,136,136,136,89,9.38170698745521,9.32844355819988,3.32326860346341,0.0532633903375925,87.2950259996314,6.78311401017162,2.14613225305406,77.8157142053408,4.63698128761392,15.401169736137
"138","TZA","TZ",4797,46525,46525,"chamakapo",NA,33.511495,-2.100875,3,"school","mapping",2017,11,15,30,0,0,0,30,0,0,0,30,0,0,0,1,36846,0,0,0,0,0.556597453542054,137,137,686,90,20.4225977134421,20.3524393025607,39.1013145996669,0.0701572974656954,40.4760897131832,52.4213612173681,25.2997147435303,30.1921006128848,27.1216492134655,17.3865363300979
"139","TZA","TZ",4791,46489,46489,"chamchuzi",NA,30.85969,-1.81501,3,"school","sentinel site",2017,9,15,60,5,0,0,60,2,0,0,60,1,0,0,1,36801,0.0833333333333333,0.0333333333333333,0.0166666666666666,0.121374912648497,0,138,138,139,91,29.4086715810458,29.3435534883737,12.9609368093413,0.0651188629585884,57.6303857784305,56.4748730520336,20.0462887617653,24.7568462030921,36.428585930432,18.7682789827145
"14","TZA","TZ",4797,46526,46526,"baranga",NA,34.2260267,-1.6781217,3,"school","mapping",2017,10,15,30,0,0,0,30,0,0,0,30,0,0,0,1,36906,0,0,0,0,5090.06129181732,13,13,13,11,45.28589493957,45.262202570701,12.8185239611206,0.0236950953434941,41.8955807408577,57.8693201054516,29.5776411958534,6.01002565797075,28.2916812916283,36.1206507016004
"140","TZA","TZ",4791,46489,46489,"chamchuzi",NA,30.85969,-1.81501,3,"school","sentinel site",2018,10,15,60,0,0,0,60,2,0,0,60,0,0,0,1,36804,0,0.0333333333333333,0,0.0314465408805031,0,139,139,138,91,NA,NA,NA,NA,NA,NA,NA,NA,NA,NA
"141","TZA","TZ",4791,46489,46489,"chamchuzi",NA,30.85969,-1.81501,3,"school","sentinel site",2016,6,14,53,0,0,0,53,1,0,0,53,0,0,0,1,36800,0,0.0188679245283018,0,0.0177999288002847,0,140,140,138,91,28.2677980988562,28.1257110933823,14.2223029433877,0.142087450625942,57.5098984770212,53.7285452144207,19.2650934571998,26.3244771979523,34.4634503690685,19.9469793497868
"142","TZA","TZ",4797,46525,46525,"chamtigiti",NA,34.0563917,-1.9982517,3,"school","mapping",2017,12,15,30,0,0,0,30,0,0,0,30,0,0,0,1,36847,0,0,0,0,2843.74118530181,141,141,141,92,34.0491693818716,33.9713830483055,6.81322894951345,0.0777876914656098,59.1376018656455,53.5073145375942,19.1467232162648,13.5805563452625,34.3605925075822,32.9121288162534
"143","TZA","TZ",4801,46560,46560,"chandulu",59670,33.602699,-2.6696899,3,"","",1997,NA,NA,120,62,NA,NA,120,0,NA,NA,120,0,NA,NA,3,15765,0.516666666666667,0,0,0.487421383647799,2017.51962089255,142,142,142,93,NA,NA,NA,NA,NA,NA,NA,NA,NA,NA
"144","TZA","TZ",4797,46631,46631,"changuge",NA,33.980625,-2.0271283,3,"school","mapping",2017,10,15,30,1,0,0,30,0,0,0,30,0,0,0,1,36888,0.0333333333333333,0,0,0.0314465408805031,0.557599681264867,143,143,522,94,17.4560047949054,17.3269263407977,23.4673349464567,0.129077371565787,59.0766600381176,12.2706219280576,10.5504255951674,37.6068649544573,1.72019590729978,50.1225123538637
"145","TZA","TZ",4809,46610,46610,"chekeleni",59846,32.004799,-5.0475202,3,"","",2004,NA,NA,60,28,NA,NA,60,0,NA,NA,60,0,NA,NA,2,15982,0.466666666666667,0,0,0.440251572327044,7145.70377758882,144,144,144,95,46.0850673193021,46.0498616718312,20.8995371711597,0.0352052804991277,33.015395614931,56.2934813138082,4.71435768785054,15.2143468655956,51.5791231113986,28.4921748411696
"146","TZA","TZ",4806,46591,46591,"chibe",NA,33.35764,-3.59736,3,"school","sentinel site",2018,9,15,60,0,0,0,60,0,0,0,60,0,0,0,1,37229,0,0,0,0,2294.73184596814,145,145,145,96,NA,NA,NA,NA,NA,NA,NA,NA,NA,NA
"147","TZA","TZ",4797,46527,46527,"chimati b",NA,33.3504817,-1.8832733,3,"school","mapping",2017,10,15,30,0,0,0,30,0,0,0,30,0,0,0,1,36953,0,0,0,0,0.192170373705073,146,146,481,97,33.8973484039307,33.865650177002,12.9963088035583,0.0316969510167837,53.1063404083252,49.6653327941895,22.4417514801025,31.07448387146,27.2235841751099,19.260181427002
"148","TZA","TZ",4797,46631,46631,"chiringe b",NA,33.8779967,-2.0170533,3,"school","mapping",2017,10,15,30,2,0,0,30,0,0,0,30,0,0,0,1,36889,0.0666666666666666,0,0,0.0628930817610062,0.368871065041583,147,147,77,56,51.4691337768958,50.9664552671981,8.44874037404604,0.502680422209553,40.082125594484,90.0974724605826,62.0051427041829,3.5330349265101,28.0923309274653,6.36949524842683
"149","TZA","TZ",4797,46527,46527,"chirorwe",NA,33.6726183,-1.8200583,3,"school","mapping",2017,12,15,30,0,0,0,30,1,0,0,30,0,0,0,1,36954,0,0.0333333333333333,0,0.0314465408805031,4132.29007339541,148,148,148,98,26.3007781226619,26.2087822776251,13.2581895342932,0.0919958636272587,60.4410340948037,53.8255028423172,24.4967124631953,21.8389437860573,29.3287911697395,24.3355518989353
"15","TZA","TZ",4807,46593,46593,"bariadi",59504,33.9917222,-2.8069614,1,"","",2004,NA,NA,62,3,NA,NA,62,0,NA,NA,62,0,NA,NA,2,15903,0.0483870967741935,0,0,0.0456482045039561,14730.2708842409,14,14,14,12,32.6315443437018,32.5954576895027,11.705675241308,0.036086264802949,55.6627810666675,64.2876798876819,50.3542833521871,20.9682206145621,13.9333979118378,14.7440996014462
"150","TZA","TZ",4797,46631,46631,"chitengule",NA,33.43539,-2.109638,3,"ward","mapping",2018,NA,NA,30,0,0,NA,30,0,0,NA,30,0,0,NA,1,22863,0,0,0,0,0.0334184966050088,149,149,675,99,NA,NA,NA,NA,NA,NA,NA,NA,NA,NA
"151","TZA","TZ",4807,46595,46595,"chumve",59530,33.709599,-2.2774401,3,"","",1997,NA,NA,119,35,NA,NA,119,0,NA,NA,119,0,NA,NA,3,15906,0.294117647058823,0,0,0.277469478357381,1302.39817537654,150,150,150,100,NA,NA,NA,NA,NA,NA,NA,NA,NA,NA
"152","TZA","TZ",4810,46619,46619,"daluni",59741,38.771198,-4.7750602,3,"","",1996,NA,NA,51,34,NA,NA,51,2,NA,NA,51,14,NA,NA,3,16016,0.666666666666667,0.0392156862745098,0.274509803921569,0.724201383599438,5145.25812664042,151,151,151,101,NA,NA,NA,NA,NA,NA,NA,NA,NA,NA
"153","TZA","TZ",4797,46531,46531,"destiny",NA,34.596485,-1.3505167,3,"school","mapping",2017,11,15,30,0,0,0,30,0,0,0,30,0,0,0,1,37150,0,0,0,0,563.793187452204,152,152,152,102,24.9166531503844,24.6892355290628,2.71358264016268,0.227417102559177,72.3697641042977,47.6845225258573,33.3217949684652,17.8492360404906,14.3627297376255,34.4662393031615
"154","TZA","TZ",4797,46530,46530,"enyamai",NA,34.6542683,-1.8264683,3,"school","mapping",2017,11,15,30,0,0,0,30,0,0,0,30,0,0,0,1,37082,0,0,0,0,2354.46297884623,153,153,153,103,53.7045901836615,53.6556691553084,2.2794658104441,0.0489195315622254,44.0159451463676,70.2516386895312,35.3218180424524,5.92352628592389,34.9298206470788,23.824835139555
"155","TZA","TZ",4797,46529,46529,"erengo",NA,33.9618117,-1.3672133,3,"school","mapping",2017,11,15,30,0,0,0,30,0,0,0,30,0,0,0,1,37026,0,0,0,0,458.974773572357,154,154,154,104,9.21289212357321,9.19360009761705,6.19007505584073,0.019292184604123,15.9059200258612,16.8208235240571,6.18561659575123,4.09390772349627,10.6352072764787,10.3941563058945
"156","TZA","TZ",4797,46527,46527,"etaro",NA,33.69398,-1.496807,3,"ward","mapping",2018,NA,NA,30,15,0,NA,30,1,0,NA,30,0,0,NA,1,22969,0.5,0.0333333333333333,0,0.487421383647799,0,155,155,156,64,NA,NA,NA,NA,NA,NA,NA,NA,NA,NA
"157","TZA","TZ",4797,46527,46527,"etaro",NA,33.69398,-1.496807,3,"ward","mapping",2018,NA,NA,30,0,0,NA,30,0,0,NA,30,0,0,NA,1,22968,0,0,0,0,0,156,156,155,64,NA,NA,NA,NA,NA,NA,NA,NA,NA,NA
"158","TZA","TZ",4797,46530,46530,"fort ikoma",NA,34.6382883,-2.0847183,3,"school","mapping",2017,9,14,30,0,0,0,30,0,0,0,30,0,0,0,1,37083,0,0,0,0,0.192171079986745,157,157,203,105,22.9855609602643,22.9616188429057,17.444796080017,0.0239426784435439,59.569642746257,46.1565046571808,26.9344877842131,30.5442243888957,19.2220170243531,23.299270283139
"159","TZA","TZ",4797,46529,46529,"gabimori",NA,33.9197867,-1.274335,3,"school","mapping",2017,11,15,30,2,0,0,30,0,0,0,30,0,0,0,1,37027,0.0666666666666666,0,0,0.0628930817610062,0.367354318499565,158,158,443,106,37.0022526221928,36.9423599419245,30.2118162702396,0.0598905886945506,74.3849764179045,49.6701474181556,29.7692185319328,60.9727228992145,19.9009290779881,30.9561707552365
"16","TZA","TZ",4797,46526,46526,"biatika",NA,34.0834917,-1.7783433,3,"school","mapping",2017,10,14,29,1,0,0,29,0,0,0,29,0,0,0,1,36907,0.0344827586206896,0,0,0.0325309043591411,0.192170033167298,15,15,45,13,25.3712264763266,25.3071669782941,14.4676685079683,0.0640589755067693,60.1611057648607,60.007354993668,22.5623118123058,9.08425935684726,37.4450433438763,30.9083866911659
"160","TZA","TZ",4801,46560,46560,"galamugi (nyang'hang",59671,33.498699,-2.6884301,3,"","",1997,NA,NA,121,75,NA,NA,121,0,NA,NA,121,0,NA,NA,3,15753,0.619834710743802,0,0,0.584749727116794,6202.0459436591,159,159,159,107,NA,NA,NA,NA,NA,NA,NA,NA,NA,NA
"161","TZA","TZ",4797,46532,46532,"ganyange",NA,34.59833,-1.355233,3,"ward","mapping",2018,NA,NA,30,0,0,NA,30,1,0,NA,30,0,0,NA,1,23140,0,0.0333333333333333,0,0.0314465408805031,0,160,160,161,108,NA,NA,NA,NA,NA,NA,NA,NA,NA,NA
"162","TZA","TZ",4797,46532,46532,"ganyange",NA,34.59833,-1.355233,3,"ward","mapping",2018,NA,NA,30,0,0,NA,30,0,0,NA,30,0,0,NA,1,23139,0,0,0,0,0,161,161,160,108,NA,NA,NA,NA,NA,NA,NA,NA,NA,NA
"163","TZA","TZ",4797,46530,46530,"gesarya",NA,34.6206167,-1.7086633,3,"school","mapping",2017,10,15,30,0,0,0,30,0,0,0,30,0,0,0,1,37084,0,0,0,0,0.368870534665301,162,162,889,109,30.707135759664,30.6707814452677,20.3250687163306,0.0363548752355955,48.9677950588217,57.4825409252201,27.4415807361908,17.0139986991712,30.0409575085287,25.5034618950016
"164","TZA","TZ",4797,46530,46530,"getasamo",NA,34.62414,-1.783518,3,"ward","mapping",2018,NA,NA,31,0,0,NA,31,0,0,NA,31,0,0,NA,1,23078,0,0,0,0,0.192170049703997,163,163,225,110,NA,NA,NA,NA,NA,NA,NA,NA,NA,NA
"165","TZA","TZ",4797,46531,46531,"gibasisi",NA,34.6732517,-1.432715,3,"school","mapping",2017,10,15,30,0,0,0,30,0,0,0,30,0,0,0,1,37151,0,0,0,0,0.189243134576827,164,164,168,111,49.0783483064532,49.0142026491766,10.7267648528314,0.0641449676323051,40.1948897827988,35.1054779659902,22.1578123839962,17.7699869793919,12.9476648990116,47.1245354248863
"166","TZA","TZ",4807,46595,46595,"gininiga",59531,33.7,-2.433333,1,"","",1997,NA,NA,118,50,NA,NA,118,0,NA,NA,118,0,NA,NA,3,15923,0.423728813559322,0,0,0.399744163735209,2996.20919067362,165,165,165,112,NA,NA,NA,NA,NA,NA,NA,NA,NA,NA
"167","TZA","TZ",4797,46529,46529,"goribe",NA,34.22543,-1.137095,3,"ward","mapping",2018,NA,NA,30,5,0,NA,30,1,0,NA,30,1,0,NA,1,23030,0.166666666666667,0.0333333333333333,0.0333333333333333,0.208770090845563,0,166,166,167,113,NA,NA,NA,NA,NA,NA,NA,NA,NA,NA
"168","TZA","TZ",4797,46529,46529,"goribe",NA,34.22543,-1.137095,3,"ward","mapping",2018,NA,NA,30,0,0,NA,30,0,0,NA,30,0,0,NA,1,23029,0,0,0,0,0,167,167,166,113,NA,NA,NA,NA,NA,NA,NA,NA,NA,NA
"169","TZA","TZ",4797,46532,46532,"gorong'a",NA,34.67325,-1.432715,3,"ward","mapping",2018,NA,NA,30,1,0,NA,30,0,0,NA,30,0,0,NA,1,23142,0.0333333333333333,0,0,0.0314465408805031,0,168,168,169,111,NA,NA,NA,NA,NA,NA,NA,NA,NA,NA
"17","TZA","TZ",4791,46488,46488,"bilele",59520,31.8137,-1.32849,3,"","",2004,NA,NA,60,16,NA,NA,60,14,NA,NA,60,11,NA,NA,2,15682,0.266666666666667,0.233333333333333,0.183333333333333,0.510237596086653,1479.16703271293,16,16,16,14,50.063383102417,47.7678260803223,7.26107501983643,2.29555803537369,42.6755418777466,38.8269536495209,4.95027160644531,9.7276759147644,33.8766846656799,51.4453687667847
"170","TZA","TZ",4797,46532,46532,"gorong'a",NA,34.67325,-1.432715,3,"ward","mapping",2018,NA,NA,30,0,0,NA,30,0,0,NA,30,0,0,NA,1,23141,0,0,0,0,0,169,169,168,111,NA,NA,NA,NA,NA,NA,NA,NA,NA,NA
"171","TZA","TZ",4809,46611,46611,"goweko",59852,33.133333,-5.333333,1,"","",2004,NA,NA,61,32,NA,NA,61,0,NA,NA,61,0,NA,NA,2,15992,0.524590163934426,0,0,0.494896381070213,19666.4593798057,170,170,170,114,38.5771472319471,38.5346552854806,31.4289558239954,0.0424913862381635,29.9938977052347,27.940615605145,13.2853115250585,11.4455140157027,14.6553038170567,60.6138729428747
"172","TZA","TZ",4807,46595,46595,"gusama",59532,33.8214,-2.35903,3,"","",1997,NA,NA,113,42,NA,NA,113,0,NA,NA,113,0,NA,NA,3,15917,0.371681415929204,0,0,0.35064284521623,5572.13047582613,171,171,171,115,NA,NA,NA,NA,NA,NA,NA,NA,NA,NA
"173","TZA","TZ",4797,46631,46631,"guta",NA,33.71536,-2.020932,3,"ward","mapping",2018,NA,NA,30,0,0,NA,30,0,0,NA,30,0,0,NA,1,22903,0,0,0,0,0.192170849136783,172,172,345,116,NA,NA,NA,NA,NA,NA,NA,NA,NA,NA
"174","TZA","TZ",4797,46631,46631,"guta b",NA,33.7296683,-2.076155,3,"school","mapping",2017,11,15,30,0,0,0,30,0,0,0,30,0,0,0,1,36890,0,0,0,0,5781.20988416142,173,173,173,117,19.2158053743391,19.1229246109739,4.6724915751639,0.0928810246779076,43.3426714576158,46.2015630188911,21.8546118958674,8.09869778592538,24.346951152767,12.9307065606206
"175","TZA","TZ",4797,46531,46531,"gwitiryo",NA,34.48467,-1.2689267,3,"school","mapping",2017,11,15,30,0,0,0,30,0,0,0,30,0,0,0,1,37152,0,0,0,0,0.0334040395100601,174,174,874,118,71.3125839848416,70.6782678350876,5.49114058743928,0.634318072289133,23.1962733331349,58.0490137891313,40.464372543535,16.7733545228247,17.5846412711286,25.1776310934572
"176","TZA","TZ",4797,46631,46631,"hunyari",NA,34.1476,-1.975975,3,"ward","mapping",2018,NA,NA,30,1,0,NA,30,0,0,NA,30,0,0,NA,1,22866,0.0333333333333333,0,0,0.0314465408805031,0,175,175,176,119,NA,NA,NA,NA,NA,NA,NA,NA,NA,NA
"177","TZA","TZ",4797,46631,46631,"hunyari",NA,34.1476,-1.975975,3,"ward","mapping",2018,NA,NA,30,0,0,NA,30,0,0,NA,30,0,0,NA,1,22865,0,0,0,0,0,176,176,175,119,NA,NA,NA,NA,NA,NA,NA,NA,NA,NA
"178","TZA","TZ",4806,46643,46643,"ibambala",NA,32.2537486,-4.1338126,3,"school","sentinel site",2018,10,15,60,1,0,0,60,0,0,0,60,0,0,0,1,37240,0.0166666666666666,0,0,0.0157232704402515,12177.4559751776,177,177,177,120,NA,NA,NA,NA,NA,NA,NA,NA,NA,NA
"179","TZA","TZ",4791,46493,46493,"ibuga",NA,30.4928467,-2.656275,3,"school","sentinel site",2017,8,14,62,0,0,0,62,14,0,0,62,1,0,0,1,36813,0,0.225806451612903,0.0161290322580645,0.224805136159268,0,178,178,179,121,25.3517914016454,25.0364451770954,10.3375069493976,0.315346566454952,64.310703914382,61.0094981075085,27.4254059626342,13.4181713804195,33.5840921185975,25.5723297351267
"18","TZA","TZ",4797,46532,46532,"binagi",NA,34.46163,-1.372242,3,"ward","mapping",2018,NA,NA,30,3,0,NA,30,2,0,NA,30,0,0,NA,1,23135,0.1,0.0666666666666666,0,0.150943396226415,0,17,17,18,15,NA,NA,NA,NA,NA,NA,NA,NA,NA,NA
"180","TZA","TZ",4791,46493,46493,"ibuga",NA,30.4928467,-2.656275,3,"school","sentinel site",2016,10,15,59,41,0,0,59,4,0,0,59,4,0,0,1,36812,0.694915254237288,0.0677966101694915,0.0677966101694915,0.69328338854802,0,179,179,178,121,24.4658373494946,24.0877732796284,11.2167441666336,0.378061968689584,64.3174179534042,58.3748133080819,26.3238764609391,14.434817179624,32.050934956836,27.1903706808323
"181","TZA","TZ",4791,46493,46493,"ibuga",NA,30.4928467,-2.656275,3,"school","sentinel site",2018,10,15,60,1,0,0,60,1,0,0,60,0,0,0,1,36816,0.0166666666666666,0.0166666666666666,0,0.0311844863731656,0,180,180,178,121,NA,NA,NA,NA,NA,NA,NA,NA,NA,NA
"182","TZA","TZ",4809,46606,46606,"ichemba",59605,32.3559,-4.7526698,3,"","",2004,NA,NA,60,26,NA,NA,60,0,NA,NA,60,0,NA,NA,2,15952,0.433333333333333,0,0,0.408805031446541,7224.87574390267,181,181,181,122,62.1338086247213,62.0517319237548,13.1290181156052,0.0820792918226881,24.7371684919344,46.3884445099987,15.0669233302651,17.8100108582536,31.3215212139604,35.801543558912
"183","TZA","TZ",4806,46590,46590,"idukilo",NA,33.5421333,-3.50588,3,"school","sentinel site",2017,9,13,61,0,0,0,61,2,0,0,61,0,0,0,1,37223,0,0.0327868852459016,0,0.0309310238168883,0,182,182,183,123,39.0604877062659,38.9408846785774,10.4542485736086,0.119602690086358,50.4852631919907,82.8547693361599,12.0676145247102,9.68851238822115,70.7871528072077,7.45672098896646
"184","TZA","TZ",4806,46590,46590,"idukilo",NA,33.5421333,-3.50588,3,"school","sentinel site",2016,7,15,54,0,0,0,54,1,0,0,54,0,0,0,1,37222,0,0.0185185185185185,0,0.0174703004891684,0,183,183,182,123,37.1548664097944,36.8876196715427,11.9971237740542,0.267246543238064,50.8480117366546,80.7249209098444,11.9730754350616,10.8962413466831,68.7518452972372,8.37883984517611
"185","TZA","TZ",4806,46590,46590,"idukilo",NA,33.5421333,-3.50588,3,"school","sentinel site",2018,10,15,60,0,0,0,60,0,0,0,60,0,0,0,1,37226,0,0,0,0,0,184,184,182,123,NA,NA,NA,NA,NA,NA,NA,NA,NA,NA
"186","TZA","TZ",4789,46480,46480,"ifugandi",59778,32.649502,-3.0393801,3,"","",2004,NA,NA,60,40,NA,NA,60,0,NA,NA,60,0,NA,NA,2,15665,0.666666666666667,0,0,0.628930817610063,10094.3494914265,185,185,185,124,58.932589426383,58.8645565729676,13.3060833553442,0.0680317711411217,27.7613294201822,29.7262037750905,16.3078868484914,25.30331672395,13.4183189402712,44.9704782116409
"187","TZA","TZ",4797,46527,46527,"ifulifu",NA,33.71062,-1.623833,3,"ward","mapping",2018,NA,NA,28,0,0,NA,28,3,0,NA,28,0,0,NA,1,22970,0,0.107142857142857,0,0.101078167115903,0,186,186,187,125,NA,NA,NA,NA,NA,NA,NA,NA,NA,NA
"188","TZA","TZ",4797,46527,46527,"ifulifu",NA,33.71062,-1.623833,3,"ward","mapping",2018,NA,NA,30,0,0,NA,30,3,0,NA,30,0,0,NA,1,22971,0,0.1,0,0.0943396226415094,0,187,187,186,125,NA,NA,NA,NA,NA,NA,NA,NA,NA,NA
"189","TZA","TZ",4809,46606,46606,"igagala",59606,31.6306,-4.93329,3,"","",2004,NA,NA,60,24,NA,NA,60,0,NA,NA,60,0,NA,NA,2,15953,0.4,0,0,0.377358490566038,22953.2575539023,188,188,188,126,55.610187852065,55.5602160751659,10.9953530810207,0.0499720483693446,33.3944606604645,15.1257253424268,6.88361120024846,7.43227707548257,8.2421138446087,77.4419954186471
"19","TZA","TZ",4797,46532,46532,"binagi",NA,34.46163,-1.372242,3,"school","mapping",2017,10,15,30,0,0,0,30,2,0,0,30,0,0,0,1,37195,0,0.0666666666666666,0,0.0628930817610062,0,18,18,17,15,50.6620998345709,50.5152038640462,4.59392541692424,0.146891717571013,44.7439749787609,64.5368266961341,19.3467015404875,13.5341337599009,45.1901265682224,21.9290367517161
"190","TZA","TZ",4807,46595,46595,"igalukio (nyangili)",59533,33.771,-2.41904,3,"","",1997,NA,NA,114,20,NA,NA,114,0,NA,NA,114,0,NA,NA,3,15905,0.175438596491228,0,0,0.165508109897385,5789.16383077283,189,189,189,127,NA,NA,NA,NA,NA,NA,NA,NA,NA,NA
"191","TZA","TZ",4801,46560,46560,"igekemaja",59673,33.056702,-2.6040299,3,"","",2004,NA,NA,60,41,NA,NA,60,4,NA,NA,60,0,NA,NA,2,15766,0.683333333333333,0.0666666666666666,0,0.664570230607966,0,190,190,191,128,23.8790595564563,23.6591076952119,23.9918409130836,0.219952843321428,52.1290992750069,49.3750373383551,27.7786985790689,4.54116779825953,21.5963392855067,46.0837935105378
"192","TZA","TZ",4801,46560,46560,"igekemaja",59672,33.056702,-2.6040299,3,"","",1997,NA,NA,119,48,NA,NA,119,0,NA,NA,119,0,NA,NA,3,15778,0.403361344537815,0,0,0.380529570318693,0,191,191,190,128,NA,NA,NA,NA,NA,NA,NA,NA,NA,NA
"193","TZA","TZ",4797,46530,46530,"igina",NA,34.6669917,-1.80958,3,"school","mapping",2017,10,15,30,0,0,0,30,0,0,0,30,0,0,0,1,37085,0,0,0,0,0.189243133645505,192,192,517,129,50.0932667175046,50.035748775049,5.47108879401528,0.0575181673074188,44.4356447701557,67.0965723275625,33.876675663086,3.29710559330959,33.2198967303548,29.6063219029176
"194","TZA","TZ",4809,46605,46605,"igogo",59582,33.7631,-4.2953401,3,"","",2004,NA,NA,61,8,NA,NA,61,2,NA,NA,61,0,NA,NA,2,15943,0.131147540983607,0.0327868852459016,0,0.150598591370751,31946.2009819352,193,193,193,130,44.5803894776296,44.3998514157123,13.6694322849507,0.180537230528868,41.750178409385,48.4077955291963,19.4661474064807,15.2818458527846,28.9416462965552,36.3103597464612
"195","TZA","TZ",4791,46487,46487,"igoma",59516,31.459,-1.5506999,3,"","",2004,NA,NA,60,37,NA,NA,60,0,NA,NA,60,7,NA,NA,2,15679,0.616666666666667,0,0.116666666666667,0.62395178197065,16175.3502746384,194,194,194,131,48.0202137606001,47.9130993780661,7.37580602309383,0.107115700119893,44.6039801878307,24.6769633554219,10.1868924292082,46.8537631889201,14.4900714135656,28.4692744390196
"196","TZA","TZ",4801,46560,46560,"igombe",59674,32.95,-2.4,1,"","",1997,NA,NA,113,28,NA,NA,113,0,NA,NA,113,1,NA,NA,3,15762,0.247787610619469,0,0.0088495575221238,0.240041846630327,13094.4249690942,195,195,195,132,NA,NA,NA,NA,NA,NA,NA,NA,NA,NA
"197","TZA","TZ",4797,46631,46631,"igundu",NA,33.30492,-2.044617,3,"ward","mapping",2018,NA,NA,28,2,0,NA,28,0,0,NA,28,0,0,NA,1,22869,0.0714285714285714,0,0,0.0673854447439353,0,196,196,197,133,NA,NA,NA,NA,NA,NA,NA,NA,NA,NA
"198","TZA","TZ",4797,46631,46631,"igundu",NA,33.30492,-2.044617,3,"ward","mapping",2018,NA,NA,30,2,0,NA,30,0,0,NA,30,0,0,NA,1,22868,0.0666666666666666,0,0,0.0628930817610062,0,197,197,196,133,NA,NA,NA,NA,NA,NA,NA,NA,NA,NA
"199","TZA","TZ",4801,46560,46560,"ihale",59675,33.516667,-2.6,1,"","",1997,NA,NA,121,32,NA,NA,121,1,NA,NA,121,0,NA,NA,3,15774,0.264462809917355,0.0082644628099173,0,0.255227952518966,2399.2818046216,198,198,198,134,NA,NA,NA,NA,NA,NA,NA,NA,NA,NA
"2","TZA","TZ",4809,46610,46610,"azimio",59845,32.078701,-5.0795999,3,"","",2004,NA,NA,60,18,NA,NA,60,2,NA,NA,60,2,NA,NA,2,15986,0.3,0.0333333333333333,0.0333333333333333,0.326310272536687,8973.96151831878,1,1,1,2,48.9461566690193,48.9111337155432,18.5496273326305,0.0350234017863942,32.5042160003602,32.4997871379572,12.7099486841536,15.2848168403082,19.7898388905947,52.2153962783093
"20","TZA","TZ",4797,46532,46532,"binagi",NA,34.46163,-1.372242,3,"ward","mapping",2018,NA,NA,30,0,0,NA,30,0,0,NA,30,0,0,NA,1,23136,0,0,0,0,0,19,19,17,15,NA,NA,NA,NA,NA,NA,NA,NA,NA,NA
"200","TZA","TZ",4806,46591,46591,"ihalo",59803,33.028599,-3.7344301,3,"","",2004,NA,NA,60,24,NA,NA,60,0,NA,NA,60,0,NA,NA,2,15896,0.4,0,0,0.377358490566038,15062.1533148983,199,199,199,135,32.7955295818597,32.7359459223985,26.9396174615177,0.0595821039658605,40.2648519713461,18.419320413764,13.1531141186328,8.67355523652748,5.26620585486014,72.9071283862115
"201","TZA","TZ",4797,46530,46530,"iharara",NA,34.328775,-2.0124083,3,"school","mapping",2017,11,15,31,0,0,0,31,0,0,0,31,0,0,0,1,37086,0,0,0,0,0.557599664159748,200,200,674,136,39.9559673341669,39.9066609961274,2.95134241335967,0.0493081692184489,57.0926880830371,59.363282659763,26.5207456151009,8.51055114417768,32.8425385907595,32.1261652439681
"202","TZA","TZ",4789,46480,46480,"ihushi",59779,32.521599,-3.0236399,3,"","",2004,NA,NA,60,42,NA,NA,60,0,NA,NA,60,0,NA,NA,2,15667,0.7,0,0,0.660377358490566,14345.8072523754,201,201,201,137,15.7639838181566,15.6317358602169,11.3364937326992,0.132248519201678,72.8995257874607,45.4601873495967,16.8005097226878,21.2248815851758,28.659679531954,33.3149310333176
"203","TZA","TZ",4797,46529,46529,"ikoma (rorya dc)",NA,34.30367,-1.173647,3,"ward","mapping",2018,NA,NA,28,0,0,NA,28,0,0,NA,28,0,0,NA,1,23031,0,0,0,0,0.368869823441695,202,202,410,138,NA,NA,NA,NA,NA,NA,NA,NA,NA,NA
"204","TZA","TZ",4797,46530,46530,"ikoma (serengeti dc)",NA,34.63829,-2.084718,3,"ward","mapping",2018,NA,NA,30,0,0,NA,30,0,0,NA,30,0,0,NA,1,23080,0,0,0,0,0.192171079986745,203,203,157,105,NA,NA,NA,NA,NA,NA,NA,NA,NA,NA
"205","TZA","TZ",4797,46530,46530,"ikorongo",NA,34.4238417,-1.58883,3,"school","mapping",2017,11,15,30,0,0,0,30,2,0,0,30,0,0,0,1,37087,0,0.0666666666666666,0,0.0628930817610062,0.189243133645505,204,204,92,66,29.3796522399837,29.341768511616,13.7851284059641,0.0378832255747932,56.8352192765312,52.400695623061,28.7066604982415,26.9523198570366,23.6940377984115,20.646980838881
"206","TZA","TZ",4801,46560,46560,"ilendeja",59676,33.042099,-2.5471301,3,"","",1997,NA,NA,117,46,NA,NA,117,0,NA,NA,117,1,NA,NA,3,15750,0.393162393162393,0,0.0085470085470085,0.375800980542151,1576.37594748832,205,205,205,139,NA,NA,NA,NA,NA,NA,NA,NA,NA,NA
"207","TZA","TZ",4801,46560,46560,"ilumya",59677,33.44619,-2.5897521,1,"","",1997,NA,NA,125,33,NA,NA,125,0,NA,NA,125,1,NA,NA,3,15769,0.264,0,0.008,0.254611320754717,6265.17879509367,206,206,206,140,NA,NA,NA,NA,NA,NA,NA,NA,NA,NA
"208","TZA","TZ",4797,46528,46528,"imanuel",NA,33.7881033,-1.52143,3,"school","mapping",2017,11,15,30,0,0,0,30,0,0,0,30,0,0,0,1,36998,0,0,0,0,1208.88650250889,207,207,207,141,23.5917760763788,23.0153393718974,5.3889634077647,0.576436424945539,22.4482432048224,16.3518912260495,10.0706461105834,3.58170086364311,6.28124558101838,31.495389875572
"209","TZA","TZ",4809,46606,46606,"imara",59607,32.232899,-4.5377002,3,"","",2004,NA,NA,60,23,NA,NA,60,0,NA,NA,60,0,NA,NA,2,15949,0.383333333333333,0,0,0.361635220125786,19146.546286524,208,208,208,142,56.7399815576372,56.6961452830008,16.4625640316068,0.0438320037500945,26.7974571872437,36.017691296662,14.140025310907,21.8345963546658,21.8776671852867,42.1477121190045
"21","TZA","TZ",4807,46597,46597,"binza",59704,33.779598,-3.18839,3,"","",2004,NA,NA,61,2,NA,NA,61,0,NA,NA,61,0,NA,NA,2,15933,0.0327868852459016,0,0,0.0309310238168883,31525.9020801462,20,20,20,16,62.0735039558964,62.0066359546572,15.4940945045496,0.0668674382446307,22.4324011798687,82.1486200124361,2.81939706841205,12.518178147709,79.3292241562866,5.33320376483583
"210","TZA","TZ",4797,46529,46529,"ingri chini",NA,34.1703667,-1.2898583,3,"school","mapping",2017,10,15,30,2,0,0,30,0,0,0,30,0,0,0,1,37028,0.0666666666666666,0,0,0.0628930817610062,5716.41766595781,209,209,209,143,31.3239722339469,31.182279157145,13.7138255365106,0.141693140723881,54.9622025578469,57.8913486059547,26.9920159583544,18.9441523648238,30.8993321352373,23.1644985138252
"211","TZA","TZ",4806,46643,46643,"iponyanholo",59596,32.340199,-3.8712201,3,"","",2004,NA,NA,61,55,NA,NA,61,0,NA,NA,61,0,NA,NA,2,15879,0.901639344262295,0,0,0.850603154964429,5395.84140191392,210,210,210,144,47.1742697565716,47.0579383728366,18.5122225510111,0.116329989436136,34.3135094312636,39.0235943833396,17.2899110134928,24.0013967976189,21.7336826975803,36.9750084807453
"212","TZA","TZ",4797,46631,46631,"iramba",NA,33.43499,-2.0295,3,"ward","mapping",2018,NA,NA,30,0,0,NA,30,0,0,NA,30,0,0,NA,1,22870,0,0,0,0,0.367354319896549,211,211,664,145,NA,NA,NA,NA,NA,NA,NA,NA,NA,NA
"213","TZA","TZ",4797,46530,46530,"iramba",NA,34.28343,-1.6938283,3,"school","mapping",2017,12,15,30,0,0,0,30,0,0,0,30,0,0,0,1,37088,0,0,0,0,3202.98014469394,212,212,212,146,30.337050184817,30.3056332405442,21.4557996217988,0.0314162538419838,48.2071496176003,57.6006501746461,24.6011538543047,11.4836987742665,32.9994941763705,30.915653697076
"214","TZA","TZ",4797,46528,46528,"iringo",NA,33.8047,-1.499827,3,"ward","mapping",2018,NA,NA,29,0,0,NA,29,2,0,NA,29,0,0,NA,1,23004,0,0.0689655172413793,0,0.0650618087182823,0,213,213,214,147,NA,NA,NA,NA,NA,NA,NA,NA,NA,NA
"215","TZA","TZ",4797,46528,46528,"iringo",NA,33.8047,-1.499827,3,"ward","mapping",2018,NA,NA,29,0,0,NA,29,0,0,NA,29,0,0,NA,1,23003,0,0,0,0,0,214,214,213,147,NA,NA,NA,NA,NA,NA,NA,NA,NA,NA
"216","TZA","TZ",4797,46528,46528,"iringo a",NA,33.804715,-1.49922,3,"school","mapping",2017,10,15,29,0,0,0,29,0,0,0,29,0,0,0,1,36999,0,0,0,0,67.5732247760574,215,215,215,148,23.1131324768066,22.5380954742432,5.04725933074951,0.575036704540253,21.8396091461182,15.3781280517578,9.91105842590332,3.55031609535217,5.46707010269165,31.0715560913086
"217","TZA","TZ",4797,46528,46528,"iringo b",NA,33.8047033,-1.4998267,3,"school","mapping",2017,9,15,29,0,0,0,29,2,0,0,29,0,0,0,1,37000,0,0.0689655172413793,0,0.0650618087182823,0.368870225856611,216,216,213,147,23.1131324768066,22.5380954742432,5.04725933074951,0.575036704540253,21.8396091461182,15.3781280517578,9.91105842590332,3.55031609535217,5.46707010269165,31.0715560913086
"218","TZA","TZ",4791,46486,46486,"isambara",NA,31.561535,-2.890255,3,"school","sentinel site",2016,9,16,60,36,0,0,60,0,0,0,60,1,0,0,1,36788,0.6,0,0.0166666666666666,0.572327044025157,0,217,217,218,149,16.3321880093125,16.2169124451863,12.2195150593469,0.115275515099029,71.4482966566005,57.8615785264055,25.1142891725514,16.9494894514144,32.7472896542701,25.1889317862583
"219","TZA","TZ",4791,46486,46486,"isambara",NA,31.561535,-2.890255,3,"school","sentinel site",2017,9,14,60,5,0,0,60,0,0,0,60,0,0,0,1,36789,0.0833333333333333,0,0,0.0786163522012578,0,218,218,217,149,17.2526426577315,17.200996931918,10.9534975483695,0.051645238814262,71.7938565183438,60.9783779546998,26.3933281244854,15.6922295389489,34.585053068186,23.3293905552805
"22","TZA","TZ",4797,46530,46530,"bisarara",NA,34.8053933,-1.796,3,"school","mapping",2017,10,15,30,3,0,0,30,0,0,0,30,0,0,0,1,37079,0.1,0,0,0.0943396226415094,0.367354319430888,21,21,915,17,33.259526949218,33.2280603122026,18.0777840230578,0.0314685399353245,48.6626901145057,60.3841360813126,22.3867434529279,12.8564223348471,37.9973913343115,26.7594412452165
"220","TZA","TZ",4791,46486,46486,"isambara",NA,31.561535,-2.890255,3,"school","sentinel site",2018,10,15,60,3,0,0,60,0,0,0,60,0,0,0,1,36792,0.05,0,0,0.0471698113207547,0,219,219,217,149,NA,NA,NA,NA,NA,NA,NA,NA,NA,NA
"221","TZA","TZ",4797,46530,46530,"iseresere",NA,34.3751483,-1.5774133,3,"school","mapping",2017,11,15,30,0,0,0,30,0,0,0,30,0,0,0,1,37089,0,0,0,0,0.192169436469959,220,220,478,150,30.5070655785328,30.4633849789048,14.099220287342,0.043679213629682,55.3937172666411,48.8493011935552,28.2068764014101,33.0232868787632,20.6424265396602,18.1274100782652
"222","TZA","TZ",4809,46609,46609,"isike",59828,32.8103149,-5.0229931,1,"","",2004,NA,NA,62,5,NA,NA,62,0,NA,NA,62,0,NA,NA,2,15980,0.0806451612903225,0,0,0.0760803408399269,16749.4966904832,221,221,221,151,67.1682495919845,65.8083034826845,10.9426415114355,1.35995120460495,21.8891072008637,74.1367374328094,3.36555060225894,1.36699106686253,70.7711880972597,24.4962738661042
"223","TZA","TZ",4797,46530,46530,"issenye",NA,34.33144,-1.97159,3,"ward","mapping",2018,NA,NA,30,0,0,NA,30,0,0,NA,30,0,0,NA,1,23081,0,0,0,0,0.367354318965226,222,222,773,152,NA,NA,NA,NA,NA,NA,NA,NA,NA,NA
"224","TZA","TZ",4809,46609,46609,"itaga",59829,32.730808,-4.89573,1,"","",2004,NA,NA,60,27,NA,NA,60,0,NA,NA,60,0,NA,NA,2,15981,0.45,0,0,0.424528301886792,16749.4966904832,223,223,223,153,31.1655476987369,31.1029080305479,13.9993543087781,0.0626406875941898,54.8350943028342,23.3482148438302,4.80631181532717,33.4428492910559,18.5419034902282,43.2089321871903
"225","TZA","TZ",4797,46532,46532,"itiryo",NA,34.6814,-1.4123,3,"ward","mapping",2018,NA,NA,30,0,0,NA,30,0,0,NA,30,0,0,NA,1,23143,0,0,0,0,0.367354318499565,224,224,261,154,NA,NA,NA,NA,NA,NA,NA,NA,NA,NA
"226","TZA","TZ",4797,46530,46530,"itununu",NA,34.6241417,-1.7835183,3,"school","mapping",2017,10,15,31,0,0,0,31,0,0,0,31,0,0,0,1,37090,0,0,0,0,0.192170049703997,225,225,163,110,40.8748341566534,40.838375837994,9.49444377598816,0.0364573817890846,49.6307226411312,65.4418998609461,36.7956769850178,11.4179902433108,28.646224116427,23.1401074254491
"227","TZA","TZ",4807,46597,46597,"jija 'a'",59705,33.612202,-2.85461,3,"","",2004,NA,NA,60,14,NA,NA,60,0,NA,NA,60,0,NA,NA,2,15932,0.233333333333333,0,0,0.220125786163522,12705.5423107826,226,226,226,155,39.1370847190346,39.0550542354491,20.8602220390438,0.0820306799935767,40.002691717904,34.6517858383863,14.5554300438696,34.4709129773288,20.0963542713287,30.8773046078628
"228","TZA","TZ",4809,46610,46610,"jionee",59847,32.169399,-4.9394999,3,"","",2004,NA,NA,60,18,NA,NA,60,0,NA,NA,60,0,NA,NA,2,15983,0.3,0,0,0.283018867924528,14880.3100557805,227,227,227,156,49.0125637553901,48.9014864248156,4.92342985906295,0.111074853002674,46.0640087456541,35.1630945089673,14.1213640339566,19.08642506651,21.041731495259,45.7504819521022
"229","TZA","TZ",4807,46595,46595,"jisesa",59534,33.8526,-2.5138099,3,"","",1997,NA,NA,116,13,NA,NA,116,0,NA,NA,116,1,NA,NA,3,15909,0.112068965517241,0,0.0086206896551724,0.112946739057277,1927.1134098709,228,228,228,157,NA,NA,NA,NA,NA,NA,NA,NA,NA,NA
"23","TZA","TZ",4797,46531,46531,"bisarwi",NA,34.25547,-1.437075,3,"school","mapping",2017,10,14,30,0,0,0,30,0,0,0,30,0,0,0,1,37147,0,0,0,0,0,22,22,491,18,27.935235607515,27.8945583014307,20.9036715619867,0.0406793577894309,51.1610919757329,28.841289995399,16.5154067648287,54.1602497951503,12.3258830132518,16.9984597457603
"230","TZA","TZ",4801,46560,46560,"kabale",59678,29.9856157,-1.241956,1,"","",1997,NA,NA,118,61,NA,NA,118,0,NA,NA,118,0,NA,NA,3,15755,0.516949152542373,0,0,0.487687879756955,94588.5181984899,229,229,229,158,NA,NA,NA,NA,NA,NA,NA,NA,NA,NA
"231","TZA","TZ",4791,46487,46487,"kabalenzi",59517,31.5236,-1.38827,3,"","",2004,NA,NA,60,39,NA,NA,60,11,NA,NA,60,18,NA,NA,2,15681,0.65,0.183333333333333,0.3,0.754638364779874,15733.2737260881,230,230,230,159,12.3164948553485,12.1387022326558,6.667058735351,0.177792403585796,81.0164481543444,43.3470591562725,15.3230390939031,29.8554758848319,28.0240200509484,26.7974666374515
"232","TZA","TZ",4797,46631,46631,"kabarimu b",NA,33.8728333,-2.018335,3,"school","mapping",2017,10,15,30,2,0,0,30,0,0,0,30,0,0,0,1,36891,0.0666666666666666,0,0,0.0628930817610062,592.252053940594,231,231,231,160,47.4231407747579,46.8977534530742,7.21746548309713,0.525389065931474,45.3593943188777,92.0960880616533,60.8189035704762,3.01566688864268,31.2771862469163,4.88824717818564
"233","TZA","TZ",4797,46631,46631,"kabasa",NA,33.8221,-1.99453,3,"ward","mapping",2018,NA,NA,29,0,0,NA,29,0,0,NA,29,0,0,NA,1,22906,0,0,0,0,0.36735432036221,232,232,828,161,NA,NA,NA,NA,NA,NA,NA,NA,NA,NA
"234","TZA","TZ",4807,46595,46595,"kabatia",59535,33.6394,-2.3257201,3,"","",1997,NA,NA,119,40,NA,NA,119,0,NA,NA,119,0,NA,NA,3,15914,0.336134453781513,0,0,0.317107975265578,8570.68899212874,233,233,233,162,NA,NA,NA,NA,NA,NA,NA,NA,NA,NA
"235","TZA","TZ",4801,46560,46560,"kabila",59679,33.615501,-2.7230899,3,"","",1997,NA,NA,117,39,NA,NA,117,0,NA,NA,117,0,NA,NA,3,15746,0.333333333333333,0,0,0.314465408805031,4393.44441798476,234,234,234,163,NA,NA,NA,NA,NA,NA,NA,NA,NA,NA
"236","TZA","TZ",4791,46486,46486,"kabindi",59508,31.463301,-2.7959599,3,"","",2004,NA,NA,60,50,NA,NA,60,1,NA,NA,60,1,NA,NA,2,15673,0.833333333333333,0.0166666666666666,0.0166666666666666,0.791360936408106,4847.03110780078,235,235,235,164,23.7363183803768,23.6710870334743,27.8182586066303,0.0652314646415478,48.4454239647892,49.5543143468017,14.7135091068677,20.2901055919468,34.8408055884362,30.1555806795946
"237","TZA","TZ",4797,46525,46525,"kabirizi",NA,33.2615183,-2.09577,3,"school","mapping",2017,10,15,30,0,0,0,30,0,0,0,30,0,0,0,1,36848,0,0,0,0,0.189243133645505,236,236,678,165,32.4108274837058,32.3316615725033,14.3284270331932,0.0791647895723887,83.105779805221,72.5314104001168,36.385524456545,51.8920693418243,36.1458866413935,5.42155219565074
"238","TZA","TZ",4789,46477,46477,"kachwamba",59567,31.5781,-2.65272,3,"","",2004,NA,NA,60,32,NA,NA,60,0,NA,NA,60,0,NA,NA,2,15642,0.533333333333333,0,0,0.50314465408805,5941.41915469634,237,237,237,166,40.0258619755077,39.9736885828852,13.0290275906067,0.05217167150555,46.9451109130495,48.6712326095456,20.211581358381,16.1934729734764,28.4596512928318,35.1352933007367
"239","TZA","TZ",4791,46489,46489,"kafungo",NA,30.8917567,-1.59187,3,"school","sentinel site",2017,8,14,60,2,0,0,60,2,0,0,60,1,0,0,1,36803,0.0333333333333333,0.0333333333333333,0.0166666666666666,0.0765373864430468,0,238,238,239,167,8.76284286261931,8.7282008526632,7.98051861864647,0.034642695805591,83.2566404437649,44.1403812392666,16.7455116364147,41.441951570442,27.3948685259304,14.4176680070611
"24","TZA","TZ",4797,46526,46526,"bisumwa",NA,33.85492,-1.61269,3,"ward","mapping",2018,NA,NA,30,0,0,NA,30,0,0,NA,30,0,0,NA,1,22919,0,0,0,0,0.367354319430888,23,23,823,19,NA,NA,NA,NA,NA,NA,NA,NA,NA,NA
"240","TZA","TZ",4791,46489,46489,"kafungo",NA,30.8917567,-1.59187,3,"school","sentinel site",2018,10,15,60,2,0,0,60,0,0,0,60,1,0,0,1,36805,0.0333333333333333,0,0.0166666666666666,0.0466457023060796,0,239,239,238,167,NA,NA,NA,NA,NA,NA,NA,NA,NA,NA
"241","TZA","TZ",4791,46489,46489,"kafungo",NA,30.8917567,-1.59187,3,"school","sentinel site",2016,9,14,55,0,0,0,55,0,0,0,55,0,0,0,1,36802,0,0,0,0,0,240,240,238,167,8.2672145374753,8.18985560349292,8.88142342761024,0.0773588556872555,82.8513617362572,39.5564768035822,15.4593703266542,44.7614169575319,24.0971064955939,15.682106712907
"242","TZA","TZ",4793,46503,46503,"kagera",NA,29.698985,-4.9148817,3,"school","sentinel site",2018,9,15,60,5,0,0,60,2,0,0,60,1,0,0,1,36841,0.0833333333333333,0.0333333333333333,0.0166666666666666,0.121374912648497,0,241,241,242,168,NA,NA,NA,NA,NA,NA,NA,NA,NA,NA
"243","TZA","TZ",4793,46503,46503,"kagera",NA,29.698985,-4.9148817,3,"school","sentinel site",2017,9,15,60,2,0,0,60,2,0,0,60,8,0,0,1,36839,0.0333333333333333,0.0333333333333333,0.133333333333333,0.179385045422781,0,242,242,241,168,43.8562942176695,43.4385006973812,2.55985766688083,0.417791710055666,53.5838494097596,84.6560172170326,27.8340040974282,2.13015957402143,56.8220109402404,13.2138242714562
"244","TZA","TZ",4793,46503,46503,"kagera",NA,29.698985,-4.9148817,3,"school","sentinel site",2016,9,14,58,11,0,0,58,0,0,0,58,1,0,0,1,36838,0.189655172413793,0,0.0172413793103448,0.192100599017342,0,243,243,241,168,42.0223989510587,41.1002541406973,3.01613301098914,0.922144617200015,54.9614668642759,82.1222987119966,28.4503124089932,2.46911122903059,53.6719855453266,15.408589306468
"245","TZA","TZ",4791,46486,46486,"kagoma",59509,31.716667,-1.733333,1,"","",2004,NA,NA,60,47,NA,NA,60,3,NA,NA,60,0,NA,NA,2,15677,0.783333333333333,0.05,0,0.749213836477987,13735.799246019,244,244,244,169,40.9272174835205,40.736930847168,22.7308254241943,0.190288513898849,36.3419551849365,47.9563426971436,15.3049235343933,26.8633832931519,32.6514196395874,25.1802730560303
"246","TZA","TZ",4801,46563,46563,"kalebezo",59796,32.65,-2.5027563,1,"","",2004,NA,NA,60,29,NA,NA,60,0,NA,NA,60,0,NA,NA,2,15800,0.483333333333333,0,0,0.455974842767295,10869.173515348,245,245,245,170,7.52228033542633,7.43366353213787,12.9601554870605,0.0886162519454956,79.5175628662109,40.8168773651123,23.122790813446,14.1542029380798,17.6940865516663,45.0289192199707
"247","TZA","TZ",4809,46610,46610,"kalemela",59848,32.048302,-5.0005002,3,"","",2004,NA,NA,60,25,NA,NA,60,0,NA,NA,60,0,NA,NA,2,15987,0.416666666666667,0,0,0.393081761006289,7145.70377758882,246,246,246,171,90.9479560303296,90.9011199349333,3.0094050103459,0.0468362544449979,6.04263865889947,40.9345209390282,1.8092341181257,5.80778612153312,39.1252874099524,53.2576916545565
"248","TZA","TZ",4809,46605,46605,"kalemela",59583,33.448898,-4.5430398,3,"","",2004,NA,NA,60,26,NA,NA,60,0,NA,NA,60,0,NA,NA,2,15942,0.433333333333333,0,0,0.408805031446541,13026.1018074349,247,247,247,172,24.3398475227873,24.2888179311458,27.1952257279024,0.0510305261796766,48.4649277087906,42.0182610482984,16.0429331171523,20.5127509224748,25.9753274052359,37.4689881558722
"249","TZA","TZ",4809,46606,46606,"kaliua",59608,31.7936207,-5.0590626,1,"","",2004,NA,NA,63,25,NA,NA,63,0,NA,NA,63,0,NA,NA,2,15946,0.396825396825397,0,0,0.374363581910752,1407.73872480583,248,248,248,173,58.4795595759451,58.4077234406725,15.2291098909165,0.0718383146510969,26.2913295714262,14.4306498398689,8.63973754983379,3.79109667687171,5.79091193657024,81.7782528069503
"25","TZA","TZ",4797,46532,46532,"bomani",NA,34.36347,-1.352015,3,"ward","mapping",2018,NA,NA,30,0,0,NA,30,6,0,NA,30,0,0,NA,1,23183,0,0.2,0,0.188679245283019,0,24,24,25,20,NA,NA,NA,NA,NA,NA,NA,NA,NA,NA
"250","TZA","TZ",4797,46527,46527,"kamatondo",NA,33.6569167,-1.87591,3,"school","mapping",2017,10,15,29,3,0,0,29,1,0,0,29,0,0,0,1,36955,0.103448275862069,0.0344827586206896,0,0.126758351468378,0.367354319896549,249,249,759,174,29.674939583474,29.5945678717719,11.6983157293266,0.0803702805492566,58.6267480042598,60.9806458107887,26.4597085957203,17.8171633408424,34.5209381271431,21.2021884033074
"251","TZA","TZ",4797,46530,46530,"kambarage",NA,34.6845933,-1.833015,3,"school","mapping",2017,10,15,30,1,0,0,30,0,0,0,30,0,0,0,1,37091,0.0333333333333333,0,0,0.0314465408805031,0.36735432036221,250,250,947,175,56.9590950577204,56.9048040321152,4.01009610814456,0.0542935378480691,39.0308087605998,56.0174224598585,25.1319905095217,3.33174670115728,30.8854319503369,40.6508315660617
"252","TZA","TZ",4797,46528,46528,"kambarage a",NA,33.8305,-1.53617,3,"school","mapping",2017,10,14,30,0,0,0,30,1,0,0,30,0,0,0,1,37001,0,0.0333333333333333,0,0.0314465408805031,2391.73170163315,251,251,251,176,12.9557293488275,12.9413668687622,7.64114544363614,0.0143636652290676,16.2081071982097,32.3903012020124,2.36922717710777,2.18002269693405,30.021073928812,2.23465888285191
"253","TZA","TZ",4797,46525,46525,"kambubu",NA,33.9978867,-1.9402417,3,"school","mapping",2017,10,15,30,0,0,0,30,0,0,0,30,0,0,0,1,36849,0,0,0,0,0.36887092388938,252,252,752,177,56.1544654256033,56.0089001978464,1.84623720668993,0.145565361776649,41.9992945273781,55.6079392326665,26.773125829855,16.7144966228679,28.8348139422251,27.6775637369184
"254","TZA","TZ",4797,46526,46526,"kamimange",NA,34.10489,-1.8048083,3,"school","mapping",2017,10,15,29,3,0,0,29,0,0,0,29,0,0,0,1,36911,0.103448275862069,0,0,0.0975927130774235,0.0334124232176691,253,253,550,178,24.6372812938784,24.5378578880303,8.54258510593386,0.0994246096879296,66.8201342950999,68.7039943640955,22.1735395591427,3.24067144387159,46.530455981062,28.0553347549985
"255","TZA","TZ",4797,46526,46526,"kamugegi",NA,33.7927183,-1.7343067,3,"school","mapping",2017,11,15,29,0,0,0,29,0,0,0,29,0,0,0,1,36912,0,0,0,0,0.192169896564174,254,254,419,179,22.5199052150014,22.4915732057213,19.9293415918173,0.0283318800924137,57.5507519558911,68.3898816900924,3.9292308358436,6.98447845104974,64.4606509417421,24.6256383468123
"256","TZA","TZ",4797,46528,46528,"kamunyonge",NA,33.80034,-1.508438,3,"ward","mapping",2018,NA,NA,30,2,0,NA,30,1,0,NA,30,0,0,NA,1,23006,0.0666666666666666,0.0333333333333333,0,0.0922431865828092,0,255,255,256,180,NA,NA,NA,NA,NA,NA,NA,NA,NA,NA
"257","TZA","TZ",4797,46528,46528,"kamunyonge",NA,33.80034,-1.508438,3,"ward","mapping",2018,NA,NA,30,0,0,NA,30,0,0,NA,30,0,0,NA,1,23005,0,0,0,0,0,256,256,255,180,NA,NA,NA,NA,NA,NA,NA,NA,NA,NA
"258","TZA","TZ",4797,46528,46528,"kamunyonge a",NA,33.80025,-1.5084917,3,"school","mapping",2017,6,14,30,0,0,0,30,0,0,0,30,0,0,0,1,37002,0,0,0,0,11.3362532707921,257,257,257,181,23.1131324768066,22.5380954742432,5.04725933074951,0.575036704540253,21.8396091461182,15.3781280517578,9.91105842590332,3.55031609535217,5.46707010269165,31.0715560913086
"259","TZA","TZ",4797,46528,46528,"kamunyonge b",NA,33.8003367,-1.5084383,3,"school","mapping",2017,10,15,30,2,0,0,30,1,0,0,30,0,0,0,1,37003,0.0666666666666666,0.0333333333333333,0,0.0922431865828092,0.368870236795657,258,258,255,180,23.1131324768066,22.5380954742432,5.04725933074951,0.575036704540253,21.8396091461182,15.3781280517578,9.91105842590332,3.55031609535217,5.46707010269165,31.0715560913086
"26","TZA","TZ",4797,46532,46532,"bomani",NA,34.36347,-1.352015,3,"ward","mapping",2018,NA,NA,30,0,0,NA,30,0,0,NA,30,0,0,NA,1,23184,0,0,0,0,0,25,25,24,20,NA,NA,NA,NA,NA,NA,NA,NA,NA,NA
"260","TZA","TZ",4797,46527,46527,"kanderema",NA,33.7365383,-1.90184,3,"school","mapping",2017,10,15,29,0,0,0,29,0,0,0,29,0,0,0,1,36956,0,0,0,0,0.189243133645505,259,259,37,30,9.4010827109834,9.29644953771422,14.4020510656985,0.10463284952951,76.1968675236868,62.314571666546,30.9291772528365,13.3496863439571,31.3853938982914,24.3357433828334
"261","TZA","TZ",4810,46613,46613,"kang'ata",59578,37.8913,-5.6838102,3,"","",1996,NA,NA,49,36,NA,NA,49,0,NA,NA,49,1,NA,NA,3,15997,0.73469387755102,0,0.0204081632653061,0.69821536623891,13500.7272737728,260,260,260,182,NA,NA,NA,NA,NA,NA,NA,NA,NA,NA
"262","TZA","TZ",4797,46531,46531,"kangariani",NA,34.6813967,-1.4123,3,"school","mapping",2017,10,15,30,0,0,0,30,0,0,0,30,0,0,0,1,37153,0,0,0,0,0.367354318499565,261,261,224,154,44.271092867058,44.1646987599096,10.5965900897399,0.106396139105284,45.1323169467268,39.9516012944048,23.4886471011709,11.6190360257799,16.4629536563261,48.4293624857302
"263","TZA","TZ",4797,46531,46531,"karakatonga",NA,34.6806183,-1.5198033,3,"school","mapping",2017,10,15,29,0,0,0,29,0,0,0,29,0,0,0,1,37154,0,0,0,0,0.192169277672698,262,262,820,183,29.015852760464,28.9737325751362,22.3810683774726,0.0421217020928169,48.6030769900462,45.3765605747599,27.1651215366538,26.9474045659555,18.2114375706604,27.6760353809656
"264","TZA","TZ",4797,46525,46525,"karukekere b",NA,33.5442933,-2.0681383,3,"school","mapping",2017,10,14,30,1,0,0,30,0,0,0,30,0,0,0,1,36850,0.0333333333333333,0,0,0.0314465408805031,5160.27956140186,263,263,263,184,32.6963326236541,32.5852016778047,21.35611005231,0.111131011871936,45.9475574207519,54.0414453382384,24.0006964646388,25.8866756122888,30.0407506034671,20.0718772872993
"265","TZA","TZ",4809,46608,46608,"kasandalala",59806,32.746399,-5.42978,3,"","",2004,NA,NA,60,27,NA,NA,60,0,NA,NA,60,0,NA,NA,2,15969,0.45,0,0,0.424528301886792,9183.89752639534,264,264,264,185,42.3841370420853,42.2815410462246,19.5860146891493,0.10259632726459,38.0298467994796,45.7585732686448,17.6509479866471,20.8910815277493,28.1076234783607,33.350345057585
"266","TZA","TZ",4791,46486,46486,"kasato",59510,31.1628,-3.0875001,3,"","",2004,NA,NA,60,44,NA,NA,60,0,NA,NA,60,0,NA,NA,2,15672,0.733333333333333,0,0,0.691823899371069,40551.7307639225,265,265,265,186,44.202036633459,44.1177453634512,26.9410810805499,0.0842895015766524,28.8568848593587,43.7081389246213,15.3307887455661,19.0704097985653,28.3773516499965,37.2214499190673
"267","TZA","TZ",4791,46492,46492,"kasheno",59758,31.6789,-1.8885601,3,"","",2004,NA,NA,60,34,NA,NA,60,24,NA,NA,60,33,NA,NA,2,15692,0.566666666666667,0.4,0.55,0.833018867924528,6439.70030552629,266,266,266,187,24.6145233475365,24.5295933601341,16.9723297612684,0.0849295341497886,25.871892174987,23.1391128835698,9.82505045246788,23.411434883014,13.3140623679166,20.9081971842089
"268","TZA","TZ",4791,46492,46492,"kashozi",59759,31.809685,-1.2859103,1,"","",2004,NA,NA,60,46,NA,NA,60,17,NA,NA,60,9,NA,NA,2,15703,0.766666666666667,0.283333333333333,0.15,0.809302935010482,4762.20463384747,267,267,267,188,46.5948503042834,44.6122689497729,2.84532177186417,1.98258208428858,50.5598249809413,14.898792037119,10.8086562717784,7.86092152163022,4.0901359092631,77.2402861013824
"269","TZA","TZ",4797,46527,46527,"kasoma",NA,33.5709667,-1.7903633,3,"school","mapping",2017,11,15,30,0,0,0,30,0,0,0,30,0,0,0,1,36957,0,0,0,0,0.368870666494209,268,268,782,189,18.2114700303128,18.1888659386038,4.44393899354703,0.0226038421927548,24.2135159951996,21.2418314768088,9.37489542000307,20.4416913286919,11.8669358755482,5.18540364511823
"27","TZA","TZ",4810,46616,46616,"bombo majimoto",59638,39.1140366,-5.0682708,1,"","",1996,NA,NA,52,37,NA,NA,52,10,NA,NA,52,6,NA,NA,3,16008,0.711538461538462,0.192307692307692,0.115384615384615,0.748957626609184,2646.27593890455,26,26,26,21,NA,NA,NA,NA,NA,NA,NA,NA,NA,NA
"270","TZA","TZ",4791,46486,46486,"kasozibakaya",NA,31.687295,-2.81123,3,"school","sentinel site",2018,9,15,60,22,0,0,60,4,0,0,60,1,0,0,1,36793,0.366666666666667,0.0666666666666666,0.0166666666666666,0.395038434661076,0,269,269,270,190,NA,NA,NA,NA,NA,NA,NA,NA,NA,NA
"271","TZA","TZ",4791,46486,46486,"kasozibakaya",NA,31.687295,-2.81123,3,"school","sentinel site",2017,10,14,60,5,0,0,60,1,0,0,60,0,0,0,1,36791,0.0833333333333333,0.0166666666666666,0,0.0930293501048217,0,270,270,269,190,29.1382007594712,29.0798162241625,11.830033038826,0.0583844985827256,59.03176153145,61.8831598056498,23.3157021796935,16.6260692387023,38.5674577315,21.4907689576115
"272","TZA","TZ",4791,46486,46486,"kasozibakaya",NA,31.687295,-2.81123,3,"school","sentinel site",2016,9,15,57,47,0,0,57,0,0,0,57,0,0,0,1,36790,0.824561403508772,0,0,0.777888116517709,0,271,271,269,190,27.9782058480193,27.8481188499851,13.1819937242672,0.130084078241277,58.8398041644116,59.056855405182,22.5459010264129,17.8550663299978,36.5109581631313,23.0880745234818
"273","TZA","TZ",4797,46525,46525,"kasuguti",NA,33.5919583,-2.1690567,3,"school","mapping",2017,9,15,27,0,0,0,27,0,0,0,27,0,0,0,1,36854,0,0,0,0,0,272,272,273,191,23.0621901443972,22.9766650429914,16.3328428555224,0.0855248406500892,54.8718457884891,29.6087878252049,10.0669310711733,56.6011380131504,19.5418552967039,8.05695503491462
"274","TZA","TZ",4797,46525,46525,"kasuguti",NA,33.5919583,-2.1690567,3,"school","sentinel site",2016,8,13,60,2,0,0,60,0,0,0,60,0,0,0,1,36851,0.0333333333333333,0,0,0.0314465408805031,0,273,273,272,191,22.1656598773936,21.9780197514222,17.8778151944432,0.187639803234136,54.2234047982802,27.2822843429521,9.01670053406382,58.5736835187664,18.2655840184137,8.41091121095512
"275","TZA","TZ",4797,46525,46525,"kasuguti",NA,33.5919583,-2.1690567,3,"school","sentinel site",2018,9,15,55,1,0,0,55,0,0,0,55,0,0,0,1,36853,0.0181818181818181,0,0,0.0171526586620926,0,274,274,272,191,NA,NA,NA,NA,NA,NA,NA,NA,NA,NA
"276","TZA","TZ",4797,46631,46631,"kasuguti",NA,33.58254,-2.13019,3,"ward","mapping",2018,NA,NA,30,1,0,NA,30,0,0,NA,30,0,0,NA,1,22872,0.0333333333333333,0,0,0.0314465408805031,0,275,275,276,192,NA,NA,NA,NA,NA,NA,NA,NA,NA,NA
"277","TZA","TZ",4797,46631,46631,"kasuguti",NA,33.58254,-2.13019,3,"ward","mapping",2018,NA,NA,27,0,0,NA,27,0,0,NA,27,0,0,NA,1,22873,0,0,0,0,0,276,276,275,192,NA,NA,NA,NA,NA,NA,NA,NA,NA,NA
"278","TZA","TZ",4801,46563,46563,"kasungamile",59797,32.733333,-2.583333,1,"","",2004,NA,NA,60,29,NA,NA,60,0,NA,NA,60,0,NA,NA,2,15796,0.483333333333333,0,0,0.455974842767295,2848.31004966449,277,277,277,193,48.9850267845327,48.8699436761205,8.30256986240105,0.115085775873933,42.7124030670528,41.8511755898563,5.50026208203937,8.54571234754765,36.3509146286737,49.6031106073708
"279","TZA","TZ",4797,46527,46527,"kataryo b",NA,33.74827,-1.7916,3,"school","mapping",2017,11,15,30,0,0,0,30,0,0,0,30,0,0,0,1,36958,0,0,0,0,0,278,278,969,194,23.7131461683333,23.6451352044567,19.8756682699111,0.068010210999798,56.4111859999987,46.2762566920315,13.1731028272971,16.9028792276744,33.1031536501698,36.8208652312042
"28","TZA","TZ",4797,46531,46531,"bongenge",NA,34.6086233,-1.4724867,3,"school","mapping",2017,12,15,30,0,0,0,30,0,0,0,30,0,0,0,1,37148,0,0,0,0,6563.38105678658,27,27,27,22,52.5224145823624,52.4859913434209,18.8181114193938,0.0364207017172153,28.6594757576525,36.0096898122276,25.3890870344694,10.3493585252909,10.6206006460947,53.6409544889999
"280","TZA","TZ",4791,46486,46486,"katoke",59511,31.5955039,-2.9275979,1,"","",2004,NA,NA,60,44,NA,NA,60,0,NA,NA,60,0,NA,NA,2,15670,0.733333333333333,0,0,0.691823899371069,5623.53969133872,279,279,279,195,14.0408717125623,13.9748950534325,25.2367300805623,0.0659772936124012,60.722399417542,13.6171057222234,5.92883927571559,7.91829701112668,7.68826680539592,78.4645963292559
"281","TZA","TZ",4791,46492,46492,"katunguru",NA,31.6506133,-1.9389933,3,"school","sentinel site",2016,8,13,56,2,0,0,56,14,0,0,56,8,0,0,1,36808,0.0357142857142857,0.25,0.142857142857143,0.358586830958799,0,280,280,281,196,18.1420459747314,18.0599174499512,2.00420236587524,0.0821283683180809,29.8537521362305,14.1421775817871,10.3301305770874,18.9763278961182,3.81204700469971,16.8814945220947
"282","TZA","TZ",4791,46492,46492,"katunguru",NA,31.6506133,-1.9389933,3,"school","sentinel site",2017,9,15,61,0,0,0,61,15,0,0,61,12,0,0,1,36809,0,0.245901639344262,0.19672131147541,0.371932884748977,0,281,281,280,196,19.0514507293701,19.0144119262695,1.73300838470459,0.0370386093854904,29.2155418395996,15.9915046691895,11.5973663330078,17.9462471008301,4.39413690567017,16.0622482299805
"283","TZA","TZ",4791,46492,46492,"katunguru",NA,31.6506133,-1.9389933,3,"school","sentinel site",2018,9,15,60,4,0,0.02,60,4,0,0,60,1,0,0,1,36811,0.0666666666666666,0.0666666666666666,0.0166666666666666,0.13529000698812,0,282,282,280,196,NA,NA,NA,NA,NA,NA,NA,NA,NA,NA
"284","TZA","TZ",4806,46589,46589,"kawe",59603,32.6367,-3.95911,3,"","",2004,NA,NA,60,32,NA,NA,60,0,NA,NA,60,0,NA,NA,2,15884,0.533333333333333,0,0,0.50314465408805,33802.269567927,283,283,283,197,47.0341877957187,46.8848134420003,32.5069922659745,0.14937528529015,20.4588206597343,39.9720495770833,20.4222228109009,18.0891165728562,19.5498269274092,41.9388330886843
"285","TZA","TZ",4797,46530,46530,"kebancha",NA,34.5656217,-1.6916967,3,"school","mapping",2017,11,15,30,3,0,0,30,0,0,0,30,0,0,0,1,37092,0.1,0,0,0.0943396226415094,0.192169767361818,284,284,285,198,27.2265999985694,27.1971062115139,24.2436821822819,0.029492903265853,48.5297209370912,64.1449432241464,32.4279946855813,13.7933707814755,31.7169447238678,22.0616870190788
"286","TZA","TZ",4797,46530,46530,"kebancha bancha",NA,34.56562,-1.691697,3,"ward","mapping",2018,NA,NA,30,3,0,NA,30,0,0,NA,30,0,0,NA,1,23083,0.1,0,0,0.0943396226415094,0,285,285,286,198,NA,NA,NA,NA,NA,NA,NA,NA,NA,NA
"287","TZA","TZ",4797,46530,46530,"kebancha bancha",NA,34.56562,-1.691697,3,"ward","mapping",2018,NA,NA,30,0,0,NA,30,0,0,NA,30,0,0,NA,1,23084,0,0,0,0,0,286,286,285,198,NA,NA,NA,NA,NA,NA,NA,NA,NA,NA
"288","TZA","TZ",4797,46531,46531,"kebweye",NA,34.5161133,-1.3392267,3,"school","mapping",2017,10,15,30,1,0,0,30,2,0,0,30,0,0,0,1,37155,0.0333333333333333,0.0666666666666666,0,0.0922431865828092,0.368870016285997,287,287,735,199,46.9912779009399,46.8571622335653,9.54190435573846,0.134114847012739,43.4668181517117,65.3164731528043,23.605211595316,8.98200916502857,41.7112595364829,25.7015188311521
"289","TZA","TZ",4797,46532,46532,"kemairi",NA,34.43901,-1.3015883,3,"school","mapping",2017,12,15,30,0,0,0,30,1,0,0,30,0,0,0,1,37197,0,0.0333333333333333,0,0.0314465408805031,0.0334044654446188,288,288,695,200,44.5973013594554,44.551060785735,6.43267101231681,0.0462398018936391,48.9700266248922,49.260344717513,29.2812546133175,22.4807299556958,19.9790899431994,28.2589267760363
"29","TZA","TZ",4797,46531,46531,"borega a",NA,34.5863733,-1.3220667,3,"school","mapping",2017,11,15,30,0,0,0,30,0,0,0,30,0,0,0,1,37149,0,0,0,0,3361.93971474389,28,28,28,23,37.9536147084975,37.632034072062,5.95927008537985,0.321579438011334,56.0871154500189,37.4454767540607,29.7352808505861,16.9222730806844,7.71019736912823,45.6322500730464
"290","TZA","TZ",4797,46531,46531,"kemakorere",NA,34.51451,-1.3824267,3,"school","mapping",2017,10,15,30,2,0,0,30,1,0,0,30,0,0,0,1,37156,0.0666666666666666,0.0333333333333333,0,0.0922431865828092,0.0334055697894655,289,289,817,201,42.6033743887964,42.4565191535373,7.07504700405173,0.146855516387834,50.3215769403784,53.7634206683283,9.51748650450462,12.3322350101295,44.2459343394281,33.9043450819841
"291","TZA","TZ",4797,46532,46532,"kemambo",NA,34.52586,-1.468143,3,"ward","mapping",2018,NA,NA,30,1,0,NA,30,1,0,NA,30,0,0,NA,1,23145,0.0333333333333333,0.0333333333333333,0,0.0618448637316561,0,290,290,291,202,NA,NA,NA,NA,NA,NA,NA,NA,NA,NA
"292","TZA","TZ",4797,46532,46532,"kemambo",NA,34.52586,-1.468143,3,"ward","mapping",2018,NA,NA,30,1,0,NA,30,0,0,NA,30,0,0,NA,1,23146,0.0333333333333333,0,0,0.0314465408805031,0,291,291,290,202,NA,NA,NA,NA,NA,NA,NA,NA,NA,NA
"293","TZA","TZ",4797,46532,46532,"kemange",NA,34.3494067,-1.3577383,3,"school","mapping",2017,11,15,30,0,0,0,30,2,0,0,30,0,0,0,1,37198,0,0.0666666666666666,0,0.0628930817610062,0.368870038199139,292,292,796,203,23.5001900388947,23.4512239583567,44.6870550956423,0.0489656520183538,31.812754891416,41.9890254098243,20.5314680147213,46.7896445455878,21.45755610479,11.2213321979487
"294","TZA","TZ",4797,46531,46531,"kembwi",NA,34.2848767,-1.4423817,3,"school","sentinel site",2016,6,16,53,0,0,0,53,3,0,0,53,0,0,0,1,37141,0,0.0566037735849056,0,0.0533997864008543,0,293,293,294,204,21.243614238814,21.1633387183686,37.8331705412166,0.0802753844864648,40.9232143697549,15.18919710464,10.6783054304237,80.1574589628356,4.51089212107692,4.65334316008661
"295","TZA","TZ",4797,46531,46531,"kembwi",NA,34.2848767,-1.4423817,3,"school","sentinel site",2017,9,13,60,19,0,0,60,0,0,0,60,0,0,0,1,37142,0.316666666666667,0,0,0.29874213836478,0,294,294,293,204,22.6954460225967,22.6595351616683,34.6071931258237,0.0359125095989674,42.6973602990715,17.9370862175765,12.5441446909325,77.5769108053045,5.39294082940501,4.48600473494537
"296","TZA","TZ",4797,46531,46531,"kembwi",NA,34.2848767,-1.4423817,3,"school","sentinel site",2018,10,15,60,0,0,0,60,0,0,0,60,0,0,0,1,37157,0,0,0,0,0,295,295,293,204,NA,NA,NA,NA,NA,NA,NA,NA,NA,NA
"297","TZA","TZ",4797,46530,46530,"kemugongo",NA,34.4031567,-1.791385,3,"school","mapping",2017,9,15,30,0,0,0,30,0,0,0,30,0,0,0,1,37093,0,0,0,0,0.367354319896549,296,296,753,205,23.8807191559924,23.8398344313146,28.4808979837988,0.040884217410339,47.6383839471218,55.4660938684173,23.659724406008,17.2501964095867,31.8063677154445,27.2837109115957
"298","TZA","TZ",4797,46532,46532,"kenyamanyori",NA,34.38676,-1.384523,3,"ward","mapping",2018,NA,NA,30,0,0,NA,30,0,0,NA,30,0,0,NA,1,23185,0,0,0,0,0.0334056012216024,297,297,595,206,NA,NA,NA,NA,NA,NA,NA,NA,NA,NA
"299","TZA","TZ",4797,46530,46530,"kenyamonta",NA,34.2667,-1.717227,3,"ward","mapping",2018,NA,NA,30,0,0,NA,30,0,0,NA,30,0,0,NA,1,23085,0,0,0,0,0,298,298,299,207,NA,NA,NA,NA,NA,NA,NA,NA,NA,NA
"3","TZA","TZ",4797,46528,46528,"azimio",NA,33.8047617,-1.5016817,3,"school","mapping",2017,10,14,29,1,0,0,29,0,0,0,29,0,0,0,1,36991,0.0344827586206896,0,0,0.0325309043591411,0.192169230433285,2,2,375,3,23.1131324768066,22.5380954742432,5.04725933074951,0.575036704540253,21.8396091461182,15.3781280517578,9.91105842590332,3.55031609535217,5.46707010269165,31.0715560913086
"30","TZA","TZ",4801,46560,46560,"bubinza",59664,33.483333,-2.533333,1,"","",1997,NA,NA,115,37,NA,NA,115,0,NA,NA,115,0,NA,NA,3,15759,0.321739130434783,0,0,0.303527481542248,7524.64448547992,29,29,29,24,NA,NA,NA,NA,NA,NA,NA,NA,NA,NA
"300","TZA","TZ",4797,46530,46530,"kenyamonta",NA,34.2667,-1.717227,3,"school","mapping",2017,10,15,30,0,0,0,30,0,0,0,30,0,0,0,1,37094,0,0,0,0,0,299,299,298,207,18.302194683379,18.2778920950043,27.1725046026846,0.024301851151298,54.5253006867033,59.3411645838379,26.6968398546801,9.29762251009438,32.644325214536,31.3612129246197
"301","TZA","TZ",4797,46530,46530,"kenyana b",NA,34.4599117,-1.7049733,3,"school","mapping",2017,11,15,30,0,0,0,30,0,0,0,30,0,0,0,1,37095,0,0,0,0,3719.3977241421,300,300,300,208,25.1072354118834,25.0625821013591,25.3776133597969,0.0446542217953815,49.5151510629317,48.6374813834847,25.8480783598274,22.7689619684523,22.7894027389639,28.5935573856434
"302","TZA","TZ",4797,46531,46531,"kenyangi",NA,34.48647,-1.4845383,3,"school","mapping",2017,11,15,30,0,0,0,30,0,0,0,30,0,0,0,1,37158,0,0,0,0,0.0334070594981313,301,301,524,209,16.4664314464987,16.4001646783716,27.6280945717637,0.066266375131321,55.9054707694622,34.785260064588,27.8145905052572,58.8356030545262,6.97066768810085,6.37913704959022
"303","TZA","TZ",4803,46638,46638,"kerege",59438,39.0541433,-6.5871667,1,"","",1997,NA,NA,26,9,NA,NA,26,0,NA,NA,26,0,NA,NA,3,15822,0.346153846153846,0,0,0.326560232220609,2273.47245091522,302,302,302,210,NA,NA,NA,NA,NA,NA,NA,NA,NA,NA
"304","TZA","TZ",4797,46531,46531,"keryoba",NA,34.47421,-1.26027,3,"school","mapping",2017,10,15,30,0,0,0,30,3,0,0,30,0,0,0,1,37159,0,0.1,0,0.0943396226415094,64.9646415512731,303,303,303,211,61.6053080825374,60.0317622284228,6.85336638671813,1.57354719073446,31.5413232878054,57.7372002864787,43.3538965792082,16.9166051484404,14.3833036684276,25.3461943063305
"305","TZA","TZ",4797,46631,46631,"ketare (bunda dc)",NA,34.05057,-1.873438,3,"ward","mapping",2018,NA,NA,30,0,0,NA,30,0,0,NA,30,0,0,NA,1,22874,0,0,0,0,0.0334137070458382,304,304,504,212,NA,NA,NA,NA,NA,NA,NA,NA,NA,NA
"306","TZA","TZ",4797,46532,46532,"ketare (tarime tc)",NA,34.41835,-1.373432,3,"ward","mapping",2018,NA,NA,30,0,0,NA,30,2,0,NA,30,0,0,NA,1,23187,0,0.0666666666666666,0,0.0628930817610062,0,305,305,306,213,NA,NA,NA,NA,NA,NA,NA,NA,NA,NA
"307","TZA","TZ",4797,46532,46532,"ketare (tarime tc)",NA,34.41835,-1.373432,3,"ward","mapping",2018,NA,NA,30,0,0,NA,30,1,0,NA,30,0,0,NA,1,23188,0,0.0333333333333333,0,0.0314465408805031,0,306,306,305,213,NA,NA,NA,NA,NA,NA,NA,NA,NA,NA
"308","TZA","TZ",4797,46531,46531,"kewamamba",NA,34.3494833,-1.3989417,3,"school","mapping",2017,11,15,30,2,0,0,30,0,0,0,30,0,0,0,1,37160,0.0666666666666666,0,0,0.0628930817610062,2434.63573566274,307,307,307,214,19.5462994380107,19.4788360452531,53.4882002193336,0.0674640254635474,26.965501977819,28.6859575746047,2.40107686537205,52.8067988826163,26.2848812654827,18.507244093911
"309","TZA","TZ",4797,46530,46530,"kewambogo",NA,34.5071,-1.968035,3,"school","mapping",2017,10,15,30,2,0,0,30,0,0,0,30,0,0,0,1,37096,0.0666666666666666,0,0,0.0628930817610062,0,308,308,682,215,35.4891536339567,35.4578377841497,12.6527771008299,0.0313144974568232,51.8580677548512,53.716913536735,27.6503810519964,13.4692206045428,26.0665333357883,32.8138638603782
"31","TZA","TZ",4789,46476,46476,"bufanka",59522,31.9869,-3.6065199,3,"","",2004,NA,NA,60,43,NA,NA,60,0,NA,NA,60,0,NA,NA,2,15635,0.716666666666667,0,0,0.676100628930818,12509.6150412291,30,30,30,25,48.0711168186102,47.9467323359278,12.808775251782,0.124386074749642,39.1201079495441,43.3081407862043,21.6608291513373,20.5854272455658,21.6473131013125,36.1064304339884
"310","TZA","TZ",4797,46526,46526,"kiabakari b",NA,33.8506717,-1.7699617,3,"school","mapping",2017,10,15,30,3,0,0,30,0,0,0,30,0,0,0,1,36913,0.1,0,0,0.0943396226415094,4480.59623943542,309,309,309,216,33.3918903788383,33.3292433358232,6.57000083675955,0.0626469303042536,60.0381070853036,77.8510201227248,31.4731526010454,3.57921267696001,46.3778728127215,18.5697638299244
"311","TZA","TZ",4797,46526,46526,"kiagata",NA,34.1046917,-1.6463167,3,"school","mapping",2017,10,15,30,2,0,0,30,0,0,0,30,1,0,0,1,36914,0.0666666666666666,0,0.0333333333333333,0.0922431865828092,723.626142148521,310,310,310,217,36.1603141331009,36.0946694781306,21.2295499648827,0.0656448939485833,42.6101358781098,11.6583572411732,7.93135845485755,12.4091063136485,3.72699878959491,75.9325327391581
"312","TZA","TZ",4797,46528,46528,"kiara",NA,33.7882483,-1.5349467,3,"school","mapping",2017,10,15,29,0,0,0,29,1,0,0,29,0,0,0,1,37004,0,0.0344827586206896,0,0.0325309043591411,0.192169319784796,311,311,325,218,34.4589369540109,33.8508596922198,13.1418431692557,0.608077406477636,36.2682832719941,38.5155433662763,13.6738808122883,4.29132730676529,24.8416627611086,41.0621918112166
"313","TZA","TZ",4810,46620,46620,"kibanda",59750,38.7757,-5.20191,3,"","",1996,NA,NA,51,22,NA,NA,51,27,NA,NA,51,12,NA,NA,3,16018,0.431372549019608,0.529411764705882,0.235294117647059,0.750351717366453,7571.86425480441,312,312,312,219,NA,NA,NA,NA,NA,NA,NA,NA,NA,NA
"314","TZA","TZ",4797,46631,46631,"kibara",NA,33.45506,-2.150755,3,"ward","mapping",2018,NA,NA,30,1,0,NA,30,0,0,NA,30,0,0,NA,1,22875,0.0333333333333333,0,0,0.0314465408805031,0.367354319430888,313,313,314,220,NA,NA,NA,NA,NA,NA,NA,NA,NA,NA
"315","TZA","TZ",4797,46525,46525,"kibara a",NA,33.4550633,-2.150755,3,"school","mapping",2017,11,15,30,1,0,0,30,0,0,0,30,0,0,0,1,36855,0.0333333333333333,0,0,0.0314465408805031,0.367354319430888,314,314,313,220,23.2646424096675,23.2301336410083,14.9578596231975,0.034509053822536,49.9684594815795,46.226603139169,20.8256544977008,20.5499915780109,25.400951297387,21.4143639199513
"316","TZA","TZ",4797,46525,46525,"kibara b",NA,33.45497,-2.1507933,3,"school","mapping",2017,10,15,30,1,0,0,30,0,0,0,30,0,0,0,1,36856,0.0333333333333333,0,0,0.0314465408805031,10.8893901163767,315,315,315,221,23.2663634343333,23.2318937001637,14.9247357527659,0.0344700165959041,49.9079423180048,46.1740103663109,20.8053694710067,20.5250851666665,25.3686435522174,21.3999430996937
"317","TZA","TZ",4797,46532,46532,"kibasuka",NA,34.44103,-1.416995,3,"ward","mapping",2018,NA,NA,30,0,0,NA,30,0,0,NA,30,0,0,NA,1,23147,0,0,0,0,0.367354318499565,316,316,827,222,NA,NA,NA,NA,NA,NA,NA,NA,NA,NA
"318","TZA","TZ",4797,46530,46530,"kibeyo",NA,34.7129367,-1.8232633,3,"school","mapping",2017,10,15,30,0,0,0,30,0,0,0,30,0,0,0,1,37097,0,0,0,0,3336.87643854375,317,317,317,223,53.8335628376744,53.7834437659013,5.80896866175794,0.0501219944118326,40.3574671686759,59.3483028503512,25.3012268141371,5.11520169847152,34.047075997634,35.5364947205267
"319","TZA","TZ",4797,46526,46526,"kibubwa",NA,33.96207,-1.6638733,3,"school","mapping",2017,11,15,30,1,0,0,30,0,0,0,30,0,0,0,1,36915,0.0333333333333333,0,0,0.0314465408805031,0.0334099343454,318,318,113,79,33.8714792556132,33.8039965075714,16.3596724122787,0.0674849537755089,49.7688470432462,63.5936986487476,36.0125960198395,10.5641881607422,27.5811021423471,25.8421153097313
"32","TZA","TZ",4801,46560,46560,"bugando",59665,33.171299,-2.5048699,3,"","",1997,NA,NA,100,51,NA,NA,100,1,NA,NA,100,0,NA,NA,3,15770,0.51,0.01,0,0.485754716981132,3740.37867489407,31,31,31,26,NA,NA,NA,NA,NA,NA,NA,NA,NA,NA
"320","TZA","TZ",4797,46532,46532,"kibumaye",NA,34.4183467,-1.3734317,3,"school","mapping",2017,10,15,30,0,0,0,30,1,0,0,30,0,0,0,1,37199,0,0.0333333333333333,0,0.0314465408805031,0.368870057953556,319,319,305,213,36.3902449489072,36.289886491953,3.68021680459959,0.10035787329455,59.9295376710493,63.2434912048875,29.2013722216311,21.2904075182171,34.0421212921428,15.4660992311327
"321","TZA","TZ",4801,46559,46559,"kidashi",NA,33.51378,-2.7968867,3,"school","sentinel site",2018,10,15,60,0,0,0,60,0,0,0,60,0,0,0,1,37215,0,0,0,0,0,320,320,321,224,NA,NA,NA,NA,NA,NA,NA,NA,NA,NA
"322","TZA","TZ",4801,46559,46559,"kidashi",NA,33.51378,-2.7968867,3,"school","sentinel site",2017,8,15,60,0,0,0,60,0,0,0,60,0,0,0,1,37212,0,0,0,0,0,321,321,320,224,27.7044413642054,27.6199183983982,11.8806176998572,0.08452314318756,60.4149406203246,69.9830408072056,27.4050223742057,10.5227867268217,42.5780189213597,19.4941729152295
"323","TZA","TZ",4801,46559,46559,"kidashi",NA,33.51378,-2.7968867,3,"school","sentinel site",2016,9,15,52,0,0,0,52,0,0,0,52,0,0,0,1,37211,0,0,0,0,0,322,322,320,224,26.6396954476558,26.4528727467223,13.1319679854434,0.186821093637799,60.2283368406986,67.1873761966389,26.6705979284574,11.5226769207334,40.5167758019429,21.2899490251488
"324","TZA","TZ",4810,46622,46622,"kigandini",59830,38.9722271,-5.1291451,1,"","",1996,NA,NA,50,15,NA,NA,50,2,NA,NA,50,5,NA,NA,3,16035,0.3,0.04,0.1,0.372830188679245,521.417422219095,323,323,323,225,NA,NA,NA,NA,NA,NA,NA,NA,NA,NA
"325","TZA","TZ",4801,46560,46560,"kigangama",59680,33.264198,-2.5181601,3,"","",1997,NA,NA,120,58,NA,NA,120,0,NA,NA,120,0,NA,NA,3,15768,0.483333333333333,0,0,0.455974842767295,7583.72522475108,324,324,324,226,NA,NA,NA,NA,NA,NA,NA,NA,NA,NA
"326","TZA","TZ",4797,46528,46528,"kigera",NA,33.78825,-1.534947,3,"ward","mapping",2018,NA,NA,29,0,0,NA,29,1,0,NA,29,0,0,NA,1,23007,0,0.0344827586206896,0,0.0325309043591411,0,325,325,326,218,NA,NA,NA,NA,NA,NA,NA,NA,NA,NA
"327","TZA","TZ",4797,46528,46528,"kigera",NA,33.78825,-1.534947,3,"ward","mapping",2018,NA,NA,30,0,0,NA,30,0,0,NA,30,1,0,NA,1,23008,0,0,0.0333333333333333,0.0314465408805031,0,326,326,325,218,NA,NA,NA,NA,NA,NA,NA,NA,NA,NA
"328","TZA","TZ",4797,46527,46527,"kigera b",NA,33.6857717,-1.5788033,3,"school","mapping",2017,12,15,30,0,0,0,30,0,0,0,30,0,0,0,1,36959,0,0,0,0,0.192169439458891,327,327,728,227,23.1348266855834,23.0784248020394,22.6975065592154,0.0564006548112098,43.2925739436169,15.9528873180506,11.3322116984929,36.5229005906622,4.62067561955775,36.6491178798933
"329","TZA","TZ",4797,46529,46529,"kigunga",NA,34.08292,-1.245297,3,"ward","mapping",2018,NA,NA,30,0,0,NA,30,1,0,NA,30,0,0,NA,1,23032,0,0.0333333333333333,0,0.0314465408805031,0,328,328,329,36,NA,NA,NA,NA,NA,NA,NA,NA,NA,NA
"33","TZA","TZ",4791,46493,46493,"bugarama",59771,30.5322273,-2.8670033,1,"","",2004,NA,NA,60,32,NA,NA,60,0,NA,NA,60,2,NA,NA,2,15704,0.533333333333333,0,0.0333333333333333,0.517819706498952,23891.0985310379,32,32,32,27,20.4798771912444,20.4190656911703,30.0086206935912,0.0608113788129334,49.5115025620559,40.6814796289472,15.1355599796956,26.0831138072305,25.5459201566023,33.2354064034054
"330","TZA","TZ",4797,46529,46529,"kigunga",NA,34.08292,-1.245297,3,"ward","mapping",2018,NA,NA,30,0,0,NA,30,0,0,NA,30,0,0,NA,1,23033,0,0,0,0,0,329,329,328,36,NA,NA,NA,NA,NA,NA,NA,NA,NA,NA
"331","TZA","TZ",4810,46616,46616,"kijungumoto",59639,38.6614,-4.7593198,3,"","",1996,NA,NA,50,31,NA,NA,50,3,NA,NA,50,4,NA,NA,3,16010,0.62,0.06,0.08,0.63337358490566,12348.4800590825,330,330,330,228,NA,NA,NA,NA,NA,NA,NA,NA,NA,NA
"332","TZA","TZ",4809,46608,46608,"kikungu",59807,32.772701,-5.7129302,3,"","",2004,NA,NA,61,37,NA,NA,61,0,NA,NA,61,0,NA,NA,2,15964,0.60655737704918,0,0,0.572223940612434,3067.53156943051,331,331,331,229,64.5893622079752,64.5270134206089,3.198793505155,0.0623544285551312,32.2118404475555,61.3947240032678,55.437032463144,5.47689642426274,5.95768852796627,33.1283835801869
"333","TZA","TZ",4794,46509,46509,"kileo",NA,37.556301,-3.5104,3,"","",1996,8,18,271,10,NA,NA,271,35,NA,NA,271,49,NA,NA,3,30759,0.03690036900369,0.129151291512915,0.180811808118081,0.295222016657208,0,332,332,333,230,NA,NA,NA,NA,NA,NA,NA,NA,NA,NA
"334","TZA","TZ",4794,46509,46509,"kileo",NA,37.556301,-3.5104,3,"","",2002,6,16,544,9,NA,NA,544,3,NA,NA,544,45,NA,NA,2,30757,0.0165441176470588,0.0055147058823529,0.0827205882352941,0.0970481170325785,0,333,333,332,230,72.1920087002965,72.1735471435522,3.84980289963369,0.0184608130265184,23.9581875989232,49.7877327939127,7.50460157580079,25.8793219389702,42.2831332765507,24.3329442942599
"335","TZA","TZ",4797,46631,46631,"kilimani",NA,33.879145,-1.9996367,3,"school","mapping",2017,11,15,30,2,0,0,30,0,0,0,30,0,0,0,1,36892,0.0666666666666666,0,0,0.0628930817610062,0.557599648511143,334,334,838,231,36.7571559750374,36.2514985060574,17.7632201944674,0.50565828470842,45.4796243781938,63.9646683254935,43.6716895757419,7.36080243781964,20.2929777655142,28.6745311649483
"336","TZA","TZ",4810,46615,46615,"kilindi",59627,37.5534526,-5.5652084,1,"","",1996,NA,NA,50,45,NA,NA,50,6,NA,NA,50,0,NA,NA,3,16002,0.9,0.12,0,0.860377358490566,19216.8325899479,335,335,335,232,NA,NA,NA,NA,NA,NA,NA,NA,NA,NA
"337","TZA","TZ",4803,46575,46575,"kilindoni",NA,39.681,-7.903,3,"","",2000,6,18,95,49,NA,NA,95,15,NA,NA,95,58,NA,NA,3,29029,0.515789473684211,0.157894736842105,0.610526315789474,0.793575167731695,14422.9689953029,336,336,336,233,48.1054624977069,48.1054122696193,3.14243968240305,4.96190180829734e-05,48.7520961043573,22.5710000800334,4.26225182142409,7.74842992799556,18.3087486890039,69.6805689679558
"338","TZA","TZ",4809,46608,46608,"kiloleli",59808,32.981701,-5.8833899,3,"","",2004,NA,NA,60,18,NA,NA,60,0,NA,NA,60,0,NA,NA,2,15973,0.3,0,0,0.283018867924528,7011.32698147094,337,337,337,234,74.5155992136505,74.4512321567088,7.60279949818744,0.0643614087702806,17.881604620044,36.0485318871201,12.0395483620299,18.4974565403751,24.0089825171724,45.4540095031235
"339","TZA","TZ",4810,46620,46620,"kilongo",59751,38.678101,-5.30474,3,"","",1996,NA,NA,48,41,NA,NA,48,6,NA,NA,48,3,NA,NA,3,16019,0.854166666666667,0.125,0.0625,0.830538767688679,6573.66109253819,338,338,338,235,NA,NA,NA,NA,NA,NA,NA,NA,NA,NA
"34","TZA","TZ",4791,46492,46492,"bugasha",NA,31.7443583,-1.57698,3,"school","sentinel site",2016,9,13,59,1,0,0,59,34,0,0,59,10,0,0,1,36806,0.0169491525423728,0.576271186440678,0.169491525423729,0.617032275442539,0,33,33,34,28,18.9197044372559,18.5108060836792,4.45063841342926,0.408898815512657,76.6296577453613,39.7013359069824,18.1154956817627,50.0354118347168,21.5858392715454,10.2632539272308
"340","TZA","TZ",4809,46608,46608,"kilumbi",59809,33.8453152,-6.2822413,1,"","",2004,NA,NA,60,40,NA,NA,60,0,NA,NA,60,0,NA,NA,2,15976,0.666666666666667,0,0,0.628930817610063,23805.5078583972,339,339,339,236,7.22514027465942,7.21467035860818,57.3177020272567,0.0104701701968065,35.4571551135781,13.8478420180917,4.51717441089406,38.3913900894148,9.33066734837752,47.7607682806432
"341","TZA","TZ",4810,46620,46620,"kimang'a",59752,39.015598,-5.34236,3,"","",1996,NA,NA,48,31,NA,NA,48,11,NA,NA,48,1,NA,NA,3,16023,0.645833333333333,0.229166666666667,0.0208333333333333,0.691211415203529,4289.72313645517,340,340,340,237,NA,NA,NA,NA,NA,NA,NA,NA,NA,NA
"342","TZA","TZ",4797,46531,46531,"kimusi",NA,34.6172733,-1.3563967,3,"school","mapping",2017,12,15,30,0,0,0,30,0,0,0,30,0,0,0,1,37161,0,0,0,0,19.0205350263077,341,341,341,238,37.715946707235,37.4992532715713,3.22328144518694,0.21669493506461,59.0607705363472,39.3519528630122,30.1692854531295,9.67605504215329,9.18266854198042,50.9719903998257
"343","TZA","TZ",4797,46529,46529,"kinesi b",NA,33.8599583,-1.44735,3,"school","mapping",2017,11,15,30,0,0,0,30,0,0,0,30,0,0,0,1,37029,0,0,0,0,7593.25617869742,342,342,342,239,86.4276850521241,86.3575427702999,6.86743304803491,0.0701458541349917,33.06790835639,104.253766151611,11.5450917299466,10.0240576630097,92.7086746959438,12.0852002328775
"344","TZA","TZ",4797,46529,46529,"kingigoro",NA,33.97255,-1.2946617,3,"school","mapping",2017,11,15,30,3,0,0,30,0,0,0,30,0,0,0,1,37030,0.1,0,0,0.0943396226415094,5662.52581664866,343,343,343,240,15.6496927886972,15.605341420209,24.8569982133883,0.0443510319239199,59.4933089879949,42.9906656887406,28.7442351212512,23.8943367058933,14.24642905535,33.1149981395384
"345","TZA","TZ",4789,46477,46477,"kinsabe",59568,31.828199,-3.20293,3,"","",2004,NA,NA,60,56,NA,NA,60,0,NA,NA,60,0,NA,NA,2,15648,0.933333333333333,0,0,0.880503144654088,26180.6315231643,344,344,344,241,52.1671882642603,52.0895690553117,17.2812489765144,0.0776150553386512,30.5515659250502,45.6848330208411,20.310844024031,12.1543404880566,25.3739889655589,42.1608267241917
"346","TZA","TZ",4797,46631,46631,"kinyambwiga a",NA,33.7153583,-2.0209317,3,"school","mapping",2017,10,15,30,0,0,0,30,0,0,0,30,0,0,0,1,36893,0,0,0,0,0.192170849136783,345,345,172,116,27.7275386501421,27.6262231341325,6.38865871911019,0.101315922199327,65.883799135687,68.2540219616236,33.1176469596129,12.9286665164583,35.136378824836,18.8173083318512
"347","TZA","TZ",4797,46529,46529,"kinyenche",NA,34.02657,-1.229098,3,"ward","mapping",2018,NA,NA,30,6,0,NA,30,0,0,NA,30,1,0,NA,1,23035,0.2,0,0.0333333333333333,0.213836477987421,0,346,346,347,242,NA,NA,NA,NA,NA,NA,NA,NA,NA,NA
"348","TZA","TZ",4797,46529,46529,"kinyenche",NA,34.02657,-1.229098,3,"ward","mapping",2018,NA,NA,30,4,0,NA,30,0,0,NA,30,0,0,NA,1,23034,0.133333333333333,0,0,0.125786163522012,0,347,347,346,242,NA,NA,NA,NA,NA,NA,NA,NA,NA,NA
"349","TZA","TZ",4797,46532,46532,"kiore",NA,34.3484,-1.440665,3,"ward","mapping",2018,NA,NA,30,2,0,NA,30,0,0,NA,30,0,0,NA,1,23149,0.0666666666666666,0,0,0.0628930817610062,0,348,348,349,243,NA,NA,NA,NA,NA,NA,NA,NA,NA,NA
"35","TZA","TZ",4791,46492,46492,"bugasha",NA,31.7443583,-1.57698,3,"school","sentinel site",2017,9,14,61,4,0,0,61,34,0,0,61,32,0,0,1,36807,0.0655737704918032,0.557377049180328,0.524590163934426,0.757897365360063,0,34,34,33,28,19.7888374328613,19.6050601005554,3.84684121608734,0.183778449892998,76.3643226623535,43.2052001953125,19.5174856185913,47.1656627655029,23.6877126693726,9.62913584709167
"350","TZA","TZ",4797,46532,46532,"kiore",NA,34.3484,-1.440665,3,"ward","mapping",2018,NA,NA,30,0,0,NA,30,0,0,NA,30,0,0,NA,1,23150,0,0,0,0,0,349,349,348,243,NA,NA,NA,NA,NA,NA,NA,NA,NA,NA
"351","TZA","TZ",4809,46608,46608,"kipanga mlimani",59810,32.8181,-5.7109599,3,"","",2004,NA,NA,60,28,NA,NA,60,1,NA,NA,60,0,NA,NA,2,15967,0.466666666666667,0.0166666666666666,0,0.448637316561845,2113.62581364838,350,350,350,244,51.9292892896894,51.8757502560061,17.189723880906,0.0535378923639582,30.8809873984909,49.8483392954394,30.4616709170827,9.70593946650287,19.3866690193704,40.4457209258047
"352","TZA","TZ",4806,46643,46643,"kipangu",59597,32.331299,-3.8236799,3,"","",2004,NA,NA,61,53,NA,NA,61,0,NA,NA,61,0,NA,NA,2,15881,0.868852459016393,0,0,0.819672131147541,5395.84140191392,351,351,351,245,51.0140676775236,50.9187197195014,18.1474175798855,0.0953475116723653,30.8385149934047,34.1997833801238,16.6582937234528,26.693967787552,17.5414897437566,39.1062485145862
"353","TZA","TZ",4809,46608,46608,"kipili",59811,30.6020104,-7.4430244,1,"","",2004,NA,NA,60,24,NA,NA,60,0,NA,NA,60,0,NA,NA,2,15972,0.4,0,0,0.377358490566038,293994.2543851,352,352,352,246,35.5305805206299,35.1858043670654,33.5277757644653,0.344777047634125,30.9416437149048,56.8123245239258,37.3868780136108,5.32593584060669,19.4254469871521,37.8617382049561
"354","TZA","TZ",4797,46527,46527,"kiriba",NA,33.63309,-1.69627,3,"ward","mapping",2018,NA,NA,30,0,0,NA,30,0,0,NA,30,0,0,NA,1,22972,0,0,0,0,0.189243134111166,353,353,354,247,NA,NA,NA,NA,NA,NA,NA,NA,NA,NA
"355","TZA","TZ",4797,46527,46527,"kiriba b",NA,33.6330917,-1.69627,3,"school","mapping",2017,11,15,30,0,0,0,30,0,0,0,30,0,0,0,1,36960,0,0,0,0,0.189243134111166,354,354,353,247,5.10489304947854,5.09363313186006,3.22788500292563,0.01125967572592,12.7122191872032,7.46186793476492,3.53404271620668,8.42103925666018,3.92782546630285,5.16209029403321
"356","TZA","TZ",4797,46529,46529,"kirogo",NA,34.02218,-1.332513,3,"ward","mapping",2018,NA,NA,30,3,0,NA,30,0,0,NA,30,0,0,NA,1,23036,0.1,0,0,0.0943396226415094,0,355,355,356,248,NA,NA,NA,NA,NA,NA,NA,NA,NA,NA
"357","TZA","TZ",4797,46529,46529,"kirogo",NA,34.02218,-1.332513,3,"ward","mapping",2018,NA,NA,30,2,0,NA,30,0,0,NA,30,0,0,NA,1,23037,0.0666666666666666,0,0,0.0628930817610062,0,356,356,355,248,NA,NA,NA,NA,NA,NA,NA,NA,NA,NA
"358","TZA","TZ",4797,46529,46529,"kirogo",NA,34.02218,-1.332513,3,"school","mapping",2017,11,15,30,2,0,0,30,0,0,0,30,0,0,0,1,37031,0.0666666666666666,0,0,0.0628930817610062,0,357,357,355,248,29.5961676213715,29.5269676533953,18.0091432951039,0.069198230959368,52.3946914294933,48.7141277713604,30.0291456550173,26.4559665333047,18.6849785031669,24.8299065821977
"359","TZA","TZ",4803,46638,46638,"kiromo",59441,38.933998,-6.5,3,"","",1997,NA,NA,44,34,NA,NA,44,3,NA,NA,44,3,NA,NA,3,15808,0.772727272727273,0.0681818181818181,0.0681818181818181,0.757228747005372,6380.26579661475,358,358,358,249,NA,NA,NA,NA,NA,NA,NA,NA,NA,NA
"36","TZA","TZ",4791,46492,46492,"bugasha",NA,31.7443583,-1.57698,3,"school","sentinel site",2018,10,15,60,30,0,0.02,60,16,0,0,60,26,0,0.03,1,36810,0.5,0.266666666666667,0.433333333333333,0.747379454926625,0,35,35,33,28,NA,NA,NA,NA,NA,NA,NA,NA,NA,NA
"360","TZA","TZ",4797,46526,46526,"kirumi",NA,33.952905,-1.5617217,3,"school","mapping",2017,10,15,29,2,0,0,29,0,0,0,29,0,0,0,1,36916,0.0689655172413793,0,0,0.0650618087182823,0.557599172697896,359,359,49,35,18.3949018049321,18.1489149113086,12.7482205848835,0.245986357759674,116.985942378773,75.152944145402,43.8420142869035,12.3010012788331,31.3109298584984,60.6751221018457
"361","TZA","TZ",4797,46530,46530,"kisaka",NA,34.46371,-1.543092,3,"ward","mapping",2018,NA,NA,30,0,0,NA,30,1,0,NA,30,0,0,NA,1,23087,0,0.0333333333333333,0,0.0314465408805031,0,360,360,361,250,NA,NA,NA,NA,NA,NA,NA,NA,NA,NA
"362","TZA","TZ",4797,46530,46530,"kisaka",NA,34.46371,-1.543092,3,"school","mapping",2017,10,15,30,0,0,0,30,1,0,0,30,0,0,0,1,37098,0,0.0333333333333333,0,0.0314465408805031,0,361,361,360,250,24.0796773034106,24.0432684457289,34.0619129472071,0.036409451323251,41.8584084684754,51.7826671083172,29.4464259596902,31.9704863906749,22.3362411681475,16.2468462022383
"363","TZA","TZ",4797,46530,46530,"kisaka",NA,34.46371,-1.543092,3,"ward","mapping",2018,NA,NA,29,0,0,NA,29,0,0,NA,29,1,0,NA,1,23088,0,0,0.0344827586206896,0.0325309043591411,0,362,362,360,250,NA,NA,NA,NA,NA,NA,NA,NA,NA,NA
"364","TZA","TZ",4797,46526,46526,"kisamwene",NA,33.9398783,-1.6749233,3,"school","mapping",2017,11,15,30,0,0,0,30,0,0,0,30,0,0,0,1,36917,0,0,0,0,1419.38048160511,363,363,363,251,41.1256802109605,41.051560123653,12.9102098994491,0.0741214557733867,45.9641073439657,67.9073436463189,41.0766043918722,9.49755683156503,26.8307391790306,22.5951015897975
"365","TZA","TZ",4809,46608,46608,"kisanga",59812,32.940971,-5.198263,1,"","",2004,NA,NA,61,31,NA,NA,61,0,NA,NA,61,0,NA,NA,2,15963,0.508196721311475,0,0,0.479430869161769,24398.0963733844,364,364,364,252,42.0828261679264,42.0135446739791,19.1931335593808,0.0692823608586045,38.7240384469889,41.9693245002505,17.6183963561549,18.9880535134962,24.3509280268665,39.0426230867849
"366","TZA","TZ",4797,46530,46530,"kisangura",NA,34.7919,-1.833303,3,"ward","mapping",2018,NA,NA,30,0,0,NA,30,0,0,NA,30,0,0,NA,1,23089,0,0,0,0,0.368870737910301,365,365,961,253,NA,NA,NA,NA,NA,NA,NA,NA,NA,NA
"367","TZA","TZ",4806,46590,46590,"kishapu",59633,33.8857747,-3.8587051,1,"","",2004,NA,NA,60,0,NA,NA,60,0,NA,NA,60,0,NA,NA,2,15894,0,0,0,0,33115.346179256,366,366,366,254,48.1956882053843,48.1157934050645,15.8510721299604,0.0798975749915657,35.9532394591256,40.591830326925,15.749078400357,21.2555277484613,24.8427539130705,38.1526399661927
"368","TZA","TZ",4810,46622,46622,"kisimatui",59831,39.002701,-5.17553,3,"","",1996,NA,NA,45,11,NA,NA,45,9,NA,NA,45,4,NA,NA,3,16028,0.244444444444444,0.2,0.0888888888888888,0.423852783601211,6195.71782069194,367,367,367,255,NA,NA,NA,NA,NA,NA,NA,NA,NA,NA
"369","TZA","TZ",4797,46525,46525,"kisorya",NA,33.2180517,-2.10044,3,"school","mapping",2017,10,15,30,0,0,0,30,0,0,0,30,0,0,0,1,36857,0,0,0,0,0.189243133645505,368,368,369,256,8.37997531890869,8.35819911956787,3.67106533050537,0.0217765551060438,37.9489593505859,27.6156272888184,24.4194488525391,20.7698993682861,3.19617772102356,1.61447250843048
"37","TZA","TZ",4797,46529,46529,"bugendi b",NA,33.89011,-1.2289567,3,"school","mapping",2017,11,15,30,1,0,0,30,1,0,0,30,0,0,0,1,37022,0.0333333333333333,0.0333333333333333,0,0.0618448637316561,0.0334035299019888,36,36,746,29,NA,NA,NA,NA,NA,NA,NA,NA,NA,NA
"370","TZA","TZ",4797,46631,46631,"kisorya",NA,33.21805,-2.10044,3,"ward","mapping",2018,NA,NA,30,0,0,NA,30,0,0,NA,30,0,0,NA,1,22877,0,0,0,0,0.189243133645505,369,369,368,256,NA,NA,NA,NA,NA,NA,NA,NA,NA,NA
"371","TZA","TZ",4797,46529,46529,"kisumwa",NA,34.09126,-1.430703,3,"ward","mapping",2018,NA,NA,29,1,0,NA,29,0,0,NA,29,0,0,NA,1,23039,0.0344827586206896,0,0,0.0325309043591411,0,370,370,371,257,NA,NA,NA,NA,NA,NA,NA,NA,NA,NA
"372","TZA","TZ",4797,46529,46529,"kisumwa",NA,34.09126,-1.430703,3,"ward","mapping",2018,NA,NA,30,0,0,NA,30,0,0,NA,30,0,0,NA,1,23038,0,0,0,0,0,371,371,370,257,NA,NA,NA,NA,NA,NA,NA,NA,NA,NA
"373","TZA","TZ",4797,46529,46529,"kisumwa",NA,34.09126,-1.430703,3,"school","mapping",2017,11,14,30,0,0,0,30,0,0,0,30,0,0,0,1,37032,0,0,0,0,0,372,372,370,257,27.8080106090398,27.6711962202907,14.2364003546041,0.136815523468369,57.9555869558744,51.1200275859328,24.6616933279381,20.880995020315,26.4583363800081,27.9989757776662
"374","TZA","TZ",4791,46492,46492,"kitaba",59760,31.5292,-1.9526401,3,"","",2004,NA,NA,60,49,NA,NA,60,2,NA,NA,60,4,NA,NA,2,15699,0.816666666666667,0.0333333333333333,0.0666666666666666,0.787351502445842,13600.8728531209,373,373,373,258,11.6100640667495,11.4743733536375,15.0968056079833,0.135690706247003,73.2931281425864,17.8061326450666,13.5754058668842,45.7634696924664,4.23072639278542,36.4303989452894
"375","TZA","TZ",4797,46531,46531,"kitagasembe",NA,34.4711967,-1.28658,3,"school","mapping",2017,11,15,30,0,0,0,30,0,0,0,30,0,0,0,1,37162,0,0,0,0,2472.47896491368,374,374,374,259,68.6041716404164,68.4598537867365,7.30040204462188,0.144320375003984,24.0954238004809,59.395697840922,36.9412876468756,14.6638951790849,22.4544090004506,25.9404078037967
"376","TZA","TZ",4797,46528,46528,"kitaji",NA,33.80476,-1.501682,3,"ward","mapping",2018,NA,NA,29,1,0,NA,29,0,0,NA,29,0,0,NA,1,23009,0.0344827586206896,0,0,0.0325309043591411,0,375,375,376,3,NA,NA,NA,NA,NA,NA,NA,NA,NA,NA
"377","TZA","TZ",4797,46528,46528,"kitaji",NA,33.80476,-1.501682,3,"ward","mapping",2018,NA,NA,30,0,0,NA,30,0,0,NA,30,0,0,NA,1,23010,0,0,0,0,0,376,376,375,3,NA,NA,NA,NA,NA,NA,NA,NA,NA,NA
"378","TZA","TZ",4797,46529,46529,"kitembe",NA,34.16399,-1.206123,3,"ward","mapping",2018,NA,NA,30,5,0,NA,30,0,0,NA,30,0,0,NA,1,23041,0.166666666666667,0,0,0.157232704402516,0,377,377,378,260,NA,NA,NA,NA,NA,NA,NA,NA,NA,NA
"379","TZA","TZ",4797,46529,46529,"kitembe",NA,34.16399,-1.206123,3,"ward","mapping",2018,NA,NA,30,0,0,NA,30,0,0,NA,30,0,0,NA,1,23040,0,0,0,0,0,378,378,377,260,NA,NA,NA,NA,NA,NA,NA,NA,NA,NA
"38","TZA","TZ",4797,46527,46527,"bugoji",NA,33.73654,-1.90184,3,"ward","mapping",2018,NA,NA,30,4,0,NA,30,0,0,NA,30,0,0,NA,1,22954,0.133333333333333,0,0,0.125786163522012,0,37,37,38,30,NA,NA,NA,NA,NA,NA,NA,NA,NA,NA
"380","TZA","TZ",4797,46529,46529,"kitembe",NA,34.16399,-1.206123,3,"school","mapping",2017,10,15,30,0,0,0,30,0,0,0,30,0,0,0,1,37033,0,0,0,0,0,379,379,377,260,26.9267871514753,26.8689966069547,17.5053082757845,0.0577896073260804,55.5679045456076,69.1316075875405,47.4464956923275,14.8150428342012,21.6851126454493,16.0533486849441
"381","TZA","TZ",4797,46531,46531,"kitenga",NA,34.2885683,-1.2916167,3,"school","mapping",2017,11,15,28,7,0,0,28,0,0,0,28,0,0,0,1,37163,0.25,0,0,0.235849056603774,0.192168710322211,380,380,75,55,17.4881611192972,17.4403090869358,43.672950503419,0.0478516622618992,38.8388873630396,31.4855120616478,13.4242501371269,36.7010511008603,18.0612608057082,31.8134368320997
"382","TZA","TZ",4797,46531,46531,"kiterere",NA,34.2748467,-1.3296417,3,"school","mapping",2017,11,15,30,2,0,0,30,0,0,0,30,0,0,0,1,37164,0.0666666666666666,0,0,0.0628930817610062,3453.11793088999,381,381,381,261,25.1783807057814,25.0932241262002,31.3864757870346,0.0851570678959165,43.4351440713252,73.8345722918011,12.7465538994395,14.2787575173874,61.088018197475,11.8866710816416
"383","TZA","TZ",4806,46591,46591,"kituli",NA,33.14756,-3.870685,3,"school","sentinel site",2018,9,15,60,0,0,0,60,0,0,0,60,0,0,0,1,37230,0,0,0,0,5520.83702358297,382,382,382,262,NA,NA,NA,NA,NA,NA,NA,NA,NA,NA
"384","TZA","TZ",4801,46560,46560,"kitumba",59681,32.8845878,-2.4990126,1,"","",1997,NA,NA,105,43,NA,NA,105,0,NA,NA,105,0,NA,NA,3,15775,0.40952380952381,0,0,0.386343216531896,4141.32606518178,383,383,383,263,NA,NA,NA,NA,NA,NA,NA,NA,NA,NA
"385","TZA","TZ",4803,46638,46638,"kiwangwa (bago a)",59442,38.583333,-6.366667,1,"","",2011,NA,NA,49,5,NA,NA,49,0,NA,NA,49,2,NA,NA,1,15823,0.102040816326531,0,0.0408163265306122,0.130841709036329,0,384,384,385,264,14.0524866891113,10.7285633248679,47.9940666429134,3.32392350702061,37.9534457138585,54.3011925900794,19.3469515049409,11.9281897708061,34.9542410846075,33.7706175445775
"386","TZA","TZ",4803,46638,46638,"kiwangwa (bago b)",59443,38.583333,-6.366667,1,"","",2011,NA,NA,36,6,NA,NA,36,0,NA,NA,36,0,NA,NA,1,15811,0.166666666666667,0,0,0.157232704402516,0,385,385,384,264,14.0524866891113,10.7285633248679,47.9940666429134,3.32392350702061,37.9534457138585,54.3011925900794,19.3469515049409,11.9281897708061,34.9542410846075,33.7706175445775
"387","TZA","TZ",4803,46638,46638,"kiwangwa (kibaoni)",59444,38.583333,-6.366667,2,"","",2011,NA,NA,53,3,NA,NA,53,1,NA,NA,53,1,NA,NA,1,15804,0.0566037735849056,0.0188679245283018,0.0188679245283018,0.0866677202568512,0,386,386,384,264,14.0524866891113,10.7285633248679,47.9940666429134,3.32392350702061,37.9534457138585,54.3011925900794,19.3469515049409,11.9281897708061,34.9542410846075,33.7706175445775
"388","TZA","TZ",4803,46638,46638,"kiwangwa (kiembeni)",59445,38.583333,-6.366667,2,"","",2011,NA,NA,52,6,NA,NA,52,0,NA,NA,52,1,NA,NA,1,15840,0.115384615384615,0,0.0192307692307692,0.124902311041643,0,387,387,384,264,14.0524866891113,10.7285633248679,47.9940666429134,3.32392350702061,37.9534457138585,54.3011925900794,19.3469515049409,11.9281897708061,34.9542410846075,33.7706175445775
"389","TZA","TZ",4803,46638,46638,"kiwangwa (kisebengo)",59446,38.583333,-6.366667,2,"","",2011,NA,NA,19,2,NA,NA,19,0,NA,NA,19,0,NA,NA,1,15845,0.105263157894737,0,0,0.0993048659384309,0,388,388,384,264,14.0524866891113,10.7285633248679,47.9940666429134,3.32392350702061,37.9534457138585,54.3011925900794,19.3469515049409,11.9281897708061,34.9542410846075,33.7706175445775
"39","TZA","TZ",4797,46527,46527,"bugoji",NA,33.73654,-1.90184,3,"school","mapping",2017,11,15,30,4,0,0,30,0,0,0,30,0,0,0,1,36941,0.133333333333333,0,0,0.125786163522012,0,38,38,37,30,9.40158861004164,9.29695551398413,14.4018044974932,0.104632772299552,76.1966081929448,62.3146535490571,30.9290663264468,13.3495031020732,31.385586707514,24.3358447419623
"390","TZA","TZ",4803,46638,46638,"kiwangwa (kiwanzi)",59447,38.583333,-6.366667,1,"","",2011,NA,NA,50,3,NA,NA,50,0,NA,NA,50,0,NA,NA,1,15873,0.06,0,0,0.0566037735849056,0,389,389,384,264,14.0524866891113,10.7285633248679,47.9940666429134,3.32392350702061,37.9534457138585,54.3011925900794,19.3469515049409,11.9281897708061,34.9542410846075,33.7706175445775
