"iso3","iso2","admin1_id","admin2_id","iu_id","location","site_id","longitude","latitude","georeliability","location_type","survey_type","year","age_start","age_end","hk_examined","hk_positive","asc_examined","asc_positive","tt_examined","tt_positive","quality","sn","hk_prevalence","asc_prevalence","tt_prevalence","sth_prevalence","shortest","id","src","dst","identifier","improved_sewer","unpiped_sewer","surface_sewer","piped_sewer","unimproved_sewer","improved_water","unpiped_water","surface_water","piped_water","unimproved_water"
"GMB","GM",4915,47651,47651,"546",16867,-13.8876548,13.4125447,3,NA,NA,2015,NA,NA,49,1,49,2,49,0,1,5998,0.0204081632653061,0.0408163265306122,0,0.0569731165473505,1151.25542129913,0,0,0,1,NA,NA,NA,NA,NA,88.8001080697188,19.1019716939275,0.126333371692312,69.6981350835725,11.0735590305161
"GMB","GM",4916,47662,47662,"7th day adventist",16899,-16.65094667,13.312075,3,NA,NA,2015,NA,NA,49,1,49,1,49,0,1,6101,0.0204081632653061,0.0204081632653061,0,0.0381130503799517,1282.24967849775,1,1,1,2,NA,NA,NA,NA,NA,100,0,0,100,0
"GMB","GM",4912,47633,47633,"a better chance learning",16821,-16.70612167,13.44792833,3,NA,NA,2015,NA,NA,49,0,49,1,49,0,1,5811,0,0.0204081632653061,0,0.0192529842125529,483.893127430939,2,2,2,3,NA,NA,NA,NA,NA,99.8166247316748,8.85900122490772,0.00199406262263314,90.957624461676,0.181380998224714
"GMB","GM",4912,47633,47633,"abc",16822,-16.66231667,13.44337833,3,NA,NA,2015,NA,NA,52,0,52,0,52,0,1,5829,0,0,0,0,205.519396845461,3,3,3,4,NA,NA,NA,NA,NA,100,4.54475836393566,6.08865587504327e-17,95.4552418491923,5.44838534532197e-15
"GMB","GM",4916,47662,47662,"abc lower basic",16900,-16.631725,13.287365,3,NA,NA,2015,NA,NA,50,0,50,0,50,0,1,6104,0,0,0,0,506.916248835019,4,4,4,5,NA,NA,NA,NA,NA,99.9461520504066,0.0775375056958571,0.000213725280942223,99.8686139526107,0.0536349335885899
"GMB","GM",4912,47633,47633,"abuko",16823,-16.6556575,13.399421,1,NA,NA,2015,NA,NA,48,1,48,0,48,0,1,5856,0.0208333333333333,0,0,0.0196540880503144,0,5,5,6,6,NA,NA,NA,NA,NA,87.916821707697,79.3020219699858,0.14930830035323,8.61480048930624,11.9338674782138
"GMB","GM",4912,47633,47633,"abuko",16824,-16.6556575,13.399421,1,NA,NA,2015,NA,NA,0,0,0,0,0,0,1,5843,NA,NA,NA,NA,0,6,6,5,6,NA,NA,NA,NA,NA,87.916821707697,79.3020219699858,0.14930830035323,8.61480048930624,11.9338674782138
"GMB","GM",4916,47664,47664,"abuko",52575,-16.6556575,13.399421,1,NA,NA,2010,NA,NA,50,0,50,0,50,0,1,6128,0,0,0,0,0,7,7,5,6,NA,NA,NA,NA,NA,88.7839536175914,80.3415644427039,0.00889500687261229,8.44238914874189,11.2071537067581
"GMB","GM",4916,47664,47664,"african children school",16942,-16.72693167,13.39610333,3,NA,NA,2015,NA,NA,50,0,50,0,50,0,1,6145,0,0,0,0,734.608254951144,8,8,8,7,NA,NA,NA,NA,NA,89.039471933831,23.6924428862196,0.221483915407679,65.3470238507744,10.7390484918083
"GMB","GM",4912,47633,47633,"alhagie mamour deck memorial lbs",16825,-16.66584,13.45881667,3,NA,NA,2015,NA,NA,50,0,50,0,50,0,1,5816,0,0,0,0,455.168918043733,9,9,9,8,NA,NA,NA,NA,NA,100,16.4596267492504,2.20789540344765e-16,83.5403741884863,1.97519709545124e-14
"GMB","GM",4912,47633,47633,"amazing grace",16826,-16.68366667,13.45572333,3,NA,NA,2015,NA,NA,49,0,49,1,49,0,1,5855,0,0.0204081632653061,0,0.0192529842125529,367.650744622812,10,10,10,9,NA,NA,NA,NA,NA,100,13.9960678725957,1.8894865125842e-16,86.0039336429521,1.68809527065787e-14
"GMB","GM",4916,47662,47662,"anne marie river",16901,-16.661315,13.25406667,3,NA,NA,2015,NA,NA,50,0,50,0,50,0,1,6100,0,0,0,0,0,11,11,200,10,NA,NA,NA,NA,NA,95.027676001417,7.05292594942795,0.0577190522363644,87.9747488911854,4.91460530479415
"GMB","GM",4912,47633,47633,"apple tree",16827,-16.70727333,13.44385167,3,NA,NA,2015,NA,NA,50,0,50,0,50,0,1,5841,0,0,0,0,483.893127430939,12,12,12,11,NA,NA,NA,NA,NA,99.8813938843323,5.42874612938886,0.00128974874435715,94.452648336623,0.117316232727767
"GMB","GM",4916,47657,47657,"arrangallen",16733,-16.1332971,13.2055019,3,NA,NA,2015,NA,NA,0,0,0,0,0,0,1,6060,NA,NA,NA,NA,0,13,13,14,12,NA,NA,NA,NA,NA,67.9633254501252,11.8998277121693,1.05126168025181,56.0634973232319,30.9854130275685
"GMB","GM",4916,47657,47657,"arrangallen basic cycle school",16728,-16.1332971,13.2055019,3,NA,NA,2015,NA,NA,50,0,50,0,50,0,1,6065,0,0,0,0,0,14,14,13,12,NA,NA,NA,NA,NA,67.9633254501252,11.8998277121693,1.05126168025181,56.0634973232319,30.9854130275685
"GMB","GM",4916,47664,47664,"aunty doricing international school",16943,-16.76670833,13.38535333,3,NA,NA,2015,NA,NA,50,0,50,1,50,1,1,6159,0,0.02,0.02,0.0373584905660377,98.0958352832971,15,15,15,13,NA,NA,NA,NA,NA,82.3090995564923,22.9213186106973,0.455565550154849,59.3877836337327,17.2353337607828
"GMB","GM",4913,47634,47634,"badumeh kuta",16779,-15.38095333,13.39619,3,NA,NA,2015,NA,NA,0,0,0,0,0,0,1,5861,NA,NA,NA,NA,0,16,16,17,14,NA,NA,NA,NA,NA,78.4003527868014,14.4693589516834,0.625531379019878,63.9309975736196,20.9741132305133
"GMB","GM",4913,47634,47634,"badumeh kuta lower basic school",16780,-15.38095333,13.39619,3,NA,NA,2015,NA,NA,50,1,50,2,50,0,1,5859,0.02,0.04,0,0.0558490566037735,0,17,17,16,14,NA,NA,NA,NA,NA,78.4003527868014,14.4693589516834,0.625531379019878,63.9309975736196,20.9741132305133
"GMB","GM",4915,47655,47655,"baja kunda",17078,-14.0500472,13.470581,1,NA,NA,2015,NA,NA,0,0,0,0,0,0,1,6050,NA,NA,NA,NA,0,18,18,19,15,NA,NA,NA,NA,NA,95.4071452205472,5.19140468464692,0.0510189744772519,90.2157431901693,4.5418352346171
"GMB","GM",4915,47655,47655,"baja kunda lower basic",17079,-14.0500472,13.470581,1,NA,NA,2015,NA,NA,50,0,50,0,50,0,1,6047,0,0,0,0,0,19,19,18,15,NA,NA,NA,NA,NA,95.4071452205472,5.19140468464692,0.0510189744772519,90.2157431901693,4.5418352346171
"GMB","GM",4916,47662,47662,"bakary samboya",16902,-16.643375,13.237545,3,NA,NA,2015,NA,NA,0,0,0,0,0,0,1,6112,NA,NA,NA,NA,0,20,20,21,16,NA,NA,NA,NA,NA,91.0210711641608,13.922204194224,0.12046034899237,77.0988628459797,8.85847066984327
"GMB","GM",4916,47662,47662,"bakary samboya lower basic",16903,-16.643375,13.237545,3,NA,NA,2015,NA,NA,50,5,50,3,50,0,1,6102,0.1,0.06,0,0.145283018867924,0,21,21,20,16,NA,NA,NA,NA,NA,91.0210711641608,13.922204194224,0.12046034899237,77.0988628459797,8.85847066984327
"GMB","GM",4916,47664,47664,"bakoteh annex",52576,-16.6984026,13.4314429,1,NA,NA,2010,NA,NA,50,0,50,1,50,0,1,6138,0,0.02,0,0.0188679245283018,1013.81524811655,22,22,22,17,NA,NA,NA,NA,NA,99.2422522307411,12.0989953870872,0.00085256857849542,87.1432557928675,0.756896722392764
"GMB","GM",4914,47646,47646,"ballingho",17053,-15.60931833,13.495105,3,NA,NA,2015,NA,NA,0,0,0,0,0,0,1,5955,NA,NA,NA,NA,0,23,23,24,18,NA,NA,NA,NA,NA,95.2274208388566,20.5473261629917,0.0203060709030304,74.6800952510561,4.75227161300135
"GMB","GM",4914,47646,47646,"ballingho lower basic",17054,-15.60931833,13.495105,3,NA,NA,2015,NA,NA,50,0,50,0,50,0,1,5953,0,0,0,0,0,24,24,23,18,NA,NA,NA,NA,NA,95.2274208388566,20.5473261629917,0.0203060709030304,74.6800952510561,4.75227161300135
"GMB","GM",4916,47667,47667,"banjul south",16722,-16.5790323,13.4548761,1,NA,NA,2015,NA,NA,0,0,0,0,0,0,1,6059,NA,NA,NA,NA,607.061625978822,25,25,25,19,NA,NA,NA,NA,NA,95.2154461734145,11.5545720156984,0.0951827130833491,83.6608720870908,4.6893721838181
"GMB","GM",4915,47655,47655,"bantunding",17080,-14.0848874,13.4756577,1,NA,NA,2015,NA,NA,0,0,0,0,0,0,1,6044,NA,NA,NA,NA,0,26,26,27,20,NA,NA,NA,NA,NA,88.8477525175137,14.4569333211023,1.70452062922142,74.3908219485992,9.44772621975861
"GMB","GM",4915,47655,47655,"bantunding lbs",17081,-14.0848874,13.4756577,1,NA,NA,2015,NA,NA,41,0,41,0,41,1,1,6046,0,0,0.024390243902439,0.0230096640589047,0,27,27,26,20,NA,NA,NA,NA,NA,88.8477525175137,14.4569333211023,1.70452062922142,74.3908219485992,9.44772621975861
"GMB","GM",4914,47645,47645,"barra",16972,-16.5451491,13.4865118,1,NA,NA,2015,NA,NA,0,0,0,0,0,0,1,5943,NA,NA,NA,NA,622.321525821322,28,28,28,21,NA,NA,NA,NA,NA,112.077723587496,30.4889120319761,0.286363281332884,81.5888042813296,20.003221494176
"GMB","GM",4913,47635,47635,"barrow kunda",16783,-14.1161056,13.4886943,1,NA,NA,2015,NA,NA,0,0,0,0,0,0,1,5868,NA,NA,NA,NA,217.21879415246,29,29,29,22,NA,NA,NA,NA,NA,80.8911414089375,20.95346912545,2.2104931309617,59.9376720667187,16.8983652795726
"GMB","GM",4913,47635,47635,"barrow kunda lbs",16784,-15.26569667,13.48819667,3,NA,NA,2015,NA,NA,50,0,50,1,50,0,1,5867,0,0.02,0,0.0188679245283018,7352.86314821181,30,30,30,23,NA,NA,NA,NA,NA,80.3287068012355,32.4008886958035,0.479138764064165,47.9278202566659,19.1921523786828
"GMB","GM",4915,47654,47654,"barrow lower basic school",17077,-14.11727,13.48717167,3,NA,NA,2015,NA,NA,49,0,49,0,49,0,1,6032,0,0,0,0,217.21879415246,31,31,31,24,NA,NA,NA,NA,NA,80.8462868915426,20.9549728904523,2.22115826429565,59.8913136018141,16.9325547524763
"GMB","GM",4916,47662,47662,"basori",52573,-16.5893457,13.2294055,1,NA,NA,2010,NA,NA,44,10,44,0,44,0,1,6113,0.227272727272727,0,0,0.214408233276158,0,32,32,33,25,NA,NA,NA,NA,NA,87.8033364463234,16.3069344350174,0.00577994038566028,71.4963987670318,12.1908863271283
"GMB","GM",4916,47663,47663,"basori",16916,-16.5893457,13.2294055,1,NA,NA,2015,NA,NA,0,0,0,0,0,0,1,6122,NA,NA,NA,NA,0,33,33,32,25,NA,NA,NA,NA,NA,93.1262380586237,9.60380505511645,0.0531136656185662,83.522437807129,6.82064610060347
"GMB","GM",4916,47663,47663,"basori lower basic",16917,-16.5893457,13.2294055,1,NA,NA,2015,NA,NA,51,1,51,0,51,0,1,6118,0.0196078431372549,0,0,0.0184979652238253,0,34,34,32,25,NA,NA,NA,NA,NA,93.1262380586237,9.60380505511645,0.0531136656185662,83.522437807129,6.82064610060347
"GMB","GM",4916,47664,47664,"beulah lbs",16944,-16.73420833,13.39795833,3,NA,NA,2015,NA,NA,50,0,50,3,50,0,1,6155,0,0.06,0,0.0566037735849056,300.378368324038,35,35,35,26,NA,NA,NA,NA,NA,133.062324524673,18.9840003960354,0.262038526547849,114.078319576839,11.5712805501616
"GMB","GM",4915,47655,47655,"boro kanda",52594,-14.029701,13.420695,3,NA,NA,2005,NA,NA,30,0,30,0,30,0,2,6054,0,0,0,0,2566.62205452751,36,36,36,27,NA,NA,NA,NA,NA,67.6727979545021,9.55692505482218,0.00325856135333122,58.1158734309914,32.3239446402606
"GMB","GM",4915,47655,47655,"boro kanda kasseh lower basic school",17082,-14.0072348,13.4257366,1,NA,NA,2015,NA,NA,50,0,50,0,50,0,1,6053,0,0,0,0,0,37,37,38,28,NA,NA,NA,NA,NA,81.6530190866422,3.8332335060791,0.136000294597953,77.819787929041,18.2109779459019
"GMB","GM",4915,47655,47655,"boro lands kasseh",17083,-14.0072348,13.4257366,1,NA,NA,2015,NA,NA,0,0,0,0,0,0,1,6055,NA,NA,NA,NA,0,38,38,37,28,NA,NA,NA,NA,NA,81.6530190866422,3.8332335060791,0.136000294597953,77.819787929041,18.2109779459019
"GMB","GM",4916,47659,47659,"brefet",16742,-16.37993,13.23174,1,NA,NA,2015,NA,NA,0,0,0,0,0,0,1,6079,NA,NA,NA,NA,0,39,39,40,29,NA,NA,NA,NA,NA,76.8380778706974,37.0933928297143,0.610802958314648,39.7446832572885,22.5511190049155
"GMB","GM",4916,47659,47659,"brefet lower basic school",16743,-16.37993,13.23174,1,NA,NA,2015,NA,NA,50,0,50,0,50,0,1,6080,0,0,0,0,0,40,40,39,29,NA,NA,NA,NA,NA,76.8380778706974,37.0933928297143,0.610802958314648,39.7446832572885,22.5511190049155
"GMB","GM",4916,47664,47664,"brufut",16930,-16.7529514,13.3844662,1,NA,NA,2015,NA,NA,0,0,0,0,0,0,1,6139,NA,NA,NA,NA,0,41,41,43,30,NA,NA,NA,NA,NA,84.9338923380293,21.7243067890388,0.352530977903448,63.2095861913513,14.7135771541772
"GMB","GM",4916,47664,47664,"brufut ghana town",16931,-16.7680653,13.3851857,1,NA,NA,2015,NA,NA,0,0,0,0,0,0,1,6133,NA,NA,NA,NA,0,42,42,112,31,NA,NA,NA,NA,NA,82.0532960023294,23.0403343228518,0.463826039888919,59.0129646086774,17.4828766383004
"GMB","GM",4916,47664,47664,"brufut lbs",16945,-16.7529514,13.3844662,1,NA,NA,2015,NA,NA,50,0,50,0,50,0,1,6131,0,0,0,0,0,43,43,41,30,NA,NA,NA,NA,NA,84.9338923380293,21.7243067890388,0.352530977903448,63.2095861913513,14.7135771541772
"GMB","GM",4916,47664,47664,"brusubi",16932,-16.7323097,13.3998235,1,NA,NA,2015,NA,NA,0,0,0,0,0,0,1,6148,NA,NA,NA,NA,0,44,44,45,32,NA,NA,NA,NA,NA,129.42118685211,17.9362207107069,0.235875482977553,111.484961489979,10.762173128677
"GMB","GM",4916,47664,47664,"brusubi lbs",16946,-16.7323097,13.3998235,1,NA,NA,2015,NA,NA,49,0,49,0,49,2,1,6158,0,0,0.0408163265306122,0.0385059684251058,0,45,45,44,32,NA,NA,NA,NA,NA,129.42118685211,17.9362207107069,0.235875482977553,111.484961489979,10.762173128677
"GMB","GM",4911,47630,47630,"buduck",17017,-15.09476,13.74293167,3,NA,NA,2015,NA,NA,0,0,0,0,0,0,1,5785,NA,NA,NA,NA,0,46,46,47,33,NA,NA,NA,NA,NA,95.4046210358587,17.3326031280964,0.109303592155625,78.0720180747706,4.48607455727651
"GMB","GM",4911,47630,47630,"buduck basic cycle",17018,-15.09476,13.74293167,3,NA,NA,2015,NA,NA,50,0,50,0,50,0,1,5786,0,0,0,0,0,47,47,46,33,NA,NA,NA,NA,NA,95.4046210358587,17.3326031280964,0.109303592155625,78.0720180747706,4.48607455727651
"GMB","GM",4913,47637,47637,"bumari",16873,-15.7681278,13.4065482,1,NA,NA,2015,NA,NA,0,0,0,0,0,0,1,5878,NA,NA,NA,NA,1743.36151272439,48,48,48,34,NA,NA,NA,NA,NA,95.0415135319214,7.61576033278452,0.341341252075113,87.4257504139826,4.617145233947
"GMB","GM",4913,47637,47637,"bumari lower basic school",16874,-15.78135167,13.39838667,3,NA,NA,2015,NA,NA,48,1,48,1,48,0,1,5880,0.0208333333333333,0.0208333333333333,0,0.038898715932914,1743.36151272439,49,49,49,35,NA,NA,NA,NA,NA,95.1462091971433,7.51970804340591,0.192107941531841,87.6264981244344,4.66168400796347
"GMB","GM",4912,47633,47633,"bundung",52562,-16.685136,13.4197727,1,NA,NA,2010,NA,NA,54,1,54,0,54,0,1,5857,0.0185185185185185,0,0,0.0174703004891684,0,50,50,51,36,NA,NA,NA,NA,NA,99.561378038461,42.2028110343927,0.000330018467472432,57.3585667176181,0.438292596767815
"GMB","GM",4912,47633,47633,"bundung",16828,-16.685136,13.4197727,1,NA,NA,2015,NA,NA,0,0,0,0,0,0,1,5851,NA,NA,NA,NA,0,51,51,50,36,NA,NA,NA,NA,NA,99.5840583804218,42.1251498876261,0.0051397037905606,57.4589098912088,0.410800658284911
"GMB","GM",4912,47633,47633,"bundung annex lbs",16829,-16.67444,13.4197727,1,NA,NA,2015,NA,NA,50,0,50,2,50,0,1,5853,0,0.04,0,0.0377358490566037,0,52,52,53,37,NA,NA,NA,NA,NA,97.6940381551623,40.2351454925331,0.0284941183230774,57.4588936805913,2.2774665006959
"GMB","GM",4912,47633,47633,"bundung lower basic",16830,-16.67444,13.4197727,1,NA,NA,2015,NA,NA,50,0,50,1,50,0,1,5845,0,0.02,0,0.0188679245283018,0,53,53,52,37,NA,NA,NA,NA,NA,97.6940381551623,40.2351454925331,0.0284941183230774,57.4588936805913,2.2774665006959
"GMB","GM",4916,47661,47661,"bunuborr",16750,-16.05173667,13.18167333,3,NA,NA,2015,NA,NA,0,0,0,0,0,0,1,6094,NA,NA,NA,NA,42.3513901050156,54,54,54,38,8.15864293345185,6.69795337082554,4.35779057220437,1.46068966154704,1.46322560088623,81.1001443423404,22.7835397664043,0.668727172345471,58.3166058459555,18.2311265532738
"GMB","GM",4916,47661,47661,"bunuborr lower basic",16751,-16.0515269,13.1813643,1,NA,NA,2015,NA,NA,50,0,50,0,50,0,1,6086,0,0,0,0,42.3513901050156,55,55,55,39,8.59128956529318,7.05398073240836,4.58833160495611,1.53730893634685,1.54170995718578,80.8870495551416,22.7413231976232,0.663300550744186,58.1457276411543,18.4496479710628
"GMB","GM",4916,47667,47667,"campama lower basic",16723,-16.58434167,13.45608667,3,NA,NA,2015,NA,NA,50,0,50,30,50,4,1,6058,0,0.6,0.08,0.596226415094339,607.061625978822,56,56,56,40,NA,NA,NA,NA,NA,95.2151693470634,12.4332020526042,0.0897617026167028,82.7819651880188,4.69507003166373
"GMB","GM",4912,47633,47633,"carter lower basic",16831,-16.67106167,13.42623167,3,NA,NA,2015,NA,NA,50,0,50,1,50,0,1,5836,0,0.02,0,0.0188679245283018,571.03484200457,57,57,57,41,NA,NA,NA,NA,NA,98.154869395659,25.1944667607465,0.0227997508298929,72.9604032055619,1.82233008072813
"GMB","GM",4911,47631,47631,"chagai wollof lower basic school",17021,-14.66594167,13.58341,3,NA,NA,2015,NA,NA,53,1,53,0,53,0,1,5789,0.0188679245283018,0,0,0.0177999288002847,0,58,58,63,42,NA,NA,NA,NA,NA,81.5506165565394,22.2320432696367,2.36095265302209,59.318571943498,16.0884322340701
"GMB","GM",4914,47646,47646,"challa",17055,-15.55470333,13.56832167,3,NA,NA,2015,NA,NA,0,0,0,0,0,0,1,5961,NA,NA,NA,NA,0,59,59,60,43,13.6429858662395,13.5375694037662,0.199975482739026,0.105416067371204,0.133430699664516,88.2106203987591,18.7740175669994,0.153670289770925,69.4365986147808,11.63571132531
"GMB","GM",4913,47636,47636,"challa lower basic school",16788,-15.55470333,13.56832167,4,NA,NA,2015,NA,NA,51,0,51,0,51,0,1,5872,0,0,0,0,0,60,60,59,43,13.6429858662395,13.5375694037662,0.199975482739026,0.105416067371204,0.133430699664516,88.2106203987591,18.7740175669994,0.153670289770925,69.4365986147808,11.63571132531
"GMB","GM",4914,47645,47645,"chamen",16973,-16.3883258,13.5201145,1,NA,NA,2015,NA,NA,0,0,0,0,0,0,1,5948,NA,NA,NA,NA,0,61,61,62,44,NA,NA,NA,NA,NA,94.4988638124628,21.863906920252,0.0718538779106991,72.6349577610465,5.4292824390715
"GMB","GM",4914,47645,47645,"chamen lower basic school",16974,-16.3883258,13.5201145,1,NA,NA,2015,NA,NA,45,0,45,0,45,0,1,5942,0,0,0,0,0,62,62,61,44,NA,NA,NA,NA,NA,94.4988638124628,21.863906920252,0.0718538779106991,72.6349577610465,5.4292824390715
"GMB","GM",4911,47631,47631,"changai",17022,-14.66594167,13.58341,3,NA,NA,2015,NA,NA,0,0,0,0,0,0,1,5805,NA,NA,NA,NA,0,63,63,58,42,NA,NA,NA,NA,NA,81.5506165565394,22.2320432696367,2.36095265302209,59.318571943498,16.0884322340701
"GMB","GM",4915,47652,47652,"changally",52584,-14.331977,13.347914,1,NA,NA,2010,NA,NA,50,0,50,0,50,0,1,6005,0,0,0,0,494.605101833688,64,64,64,45,NA,NA,NA,NA,NA,76.8930209375411,27.1257591972338,0.0211921295397746,49.767261331143,23.0857872751103
"GMB","GM",4915,47652,47652,"changhally",52585,-14.332483,13.343619,3,NA,NA,2005,NA,NA,30,0,30,0,30,0,2,6007,0,0,0,0,494.605101833688,65,65,65,46,NA,NA,NA,NA,NA,76.9318939425889,27.4291440394074,0.00451993407547868,49.5027518943372,23.0635859606098
"GMB","GM",4912,47633,47633,"child concern",16832,-16.68929667,13.43129167,3,NA,NA,2015,NA,NA,98,0,98,0,98,0,1,5848,0,0,0,0,753.549687470711,66,66,66,47,NA,NA,NA,NA,NA,99.924502214122,14.3752435652278,0.00152460596867456,85.5492591082979,0.0739727873158913
"GMB","GM",4916,47664,47664,"creative minds bcs",16947,-16.67305167,13.40195,3,NA,NA,2015,NA,NA,49,1,49,0,49,0,1,6152,0.0204081632653061,0,0,0.0192529842125529,328.128231062892,67,67,67,48,NA,NA,NA,NA,NA,94.8834374578625,80.1989879401613,0.0632239081919618,14.6844514601733,5.05333618383245
"GMB","GM",4912,47633,47633,"daddy jobe comprehensive",16833,-16.67987667,13.46126167,3,NA,NA,2015,NA,NA,49,0,49,0,49,0,1,5814,0,0,0,0,642.987646030397,68,68,68,49,NA,NA,NA,NA,NA,100,18.2701141091241,2.46312886768385e-16,81.7298876690814,2.20121927302165e-14
"GMB","GM",4911,47626,47626,"dankunku",16988,-15.3262905,13.5712781,1,NA,NA,2015,NA,NA,0,0,0,0,0,0,1,5751,NA,NA,NA,NA,0,69,69,70,50,NA,NA,NA,NA,NA,65.7197277807547,43.3189883573648,0.484839797800911,22.4007346133587,33.7954360637353
"GMB","GM",4911,47626,47626,"dankunku basic cycle school",16989,-15.3262905,13.5712781,1,NA,NA,2015,NA,NA,50,0,50,0,50,0,1,5752,0,0,0,0,0,70,70,69,50,NA,NA,NA,NA,NA,65.7197277807547,43.3189883573648,0.484839797800911,22.4007346133587,33.7954360637353
"GMB","GM",4916,47662,47662,"darsilama",16904,-16.65434333,13.17466333,3,NA,NA,2015,NA,NA,0,0,0,0,0,0,1,6111,NA,NA,NA,NA,0,71,71,380,51,20.9888122106642,20.2872041670593,1.83338400435334,0.701609061795327,7.98146348645307,64.1698238430801,19.3189161953698,0.162355100718021,44.8509058563697,35.667821217058
"GMB","GM",4915,47652,47652,"darsilame",52586,-14.273346,13.406569,3,NA,NA,2005,NA,NA,30,0,30,1,30,0,2,6006,0,0.0333333333333333,0,0.0314465408805031,3696.70404757076,72,72,72,52,NA,NA,NA,NA,NA,82.6261549710875,34.8082467957798,0.00797372208451759,47.8179091285645,17.3658727269861
"GMB","GM",4911,47623,47623,"daru",16762,-14.61191,13.361416,1,NA,NA,2015,NA,NA,0,0,0,0,0,0,1,5744,NA,NA,NA,NA,1079.6121576305,73,73,73,53,NA,NA,NA,NA,NA,81.5349686730051,18.5716595814636,0.53193568053987,62.9633081113232,17.9330929791248
"GMB","GM",4911,47623,47623,"daru lower basic school",16763,-14.6088,13.37035333,3,NA,NA,2015,NA,NA,50,0,50,0,50,0,1,5741,0,0,0,0,1079.6121576305,74,74,74,54,NA,NA,NA,NA,NA,81.9512856492537,17.977133714381,0.569914630561703,63.9741508511067,17.4787966999928
"GMB","GM",4915,47650,47650,"demba kunda kuta",16811,-14.26912,13.25019,1,NA,NA,2015,NA,NA,0,0,0,0,0,0,1,5991,NA,NA,NA,NA,0,75,75,76,55,38.6073532104492,34.9582328796387,5.82372617721558,3.64912009239197,5.56892204284668,54.8901568835142,24.2993680368357,1.00518444018565,30.5907860051637,44.104661539994
"GMB","GM",4915,47650,47650,"demba kunda kuta basic cycle school",16812,-14.26912,13.25019,1,NA,NA,2015,NA,NA,50,0,50,0,50,0,1,5987,0,0,0,0,0,76,76,75,55,38.6073532104492,34.9582328796387,5.82372617721558,3.64912009239197,5.56892204284668,54.8901568835142,24.2993680368357,1.00518444018565,30.5907860051637,44.104661539994
"GMB","GM",4915,47652,47652,"demba wandu",17042,-14.46402,13.503285,3,NA,NA,2015,NA,NA,48,0,48,0,48,0,1,6011,0,0,0,0,3921.81998872903,77,77,77,56,25.7988605499268,21.7884159088135,14.7385206222534,4.01044321060181,9.46261882781982,67.126758497257,18.2141079194499,1.19086452586423,48.9126522068343,31.6823781880502
"GMB","GM",4911,47631,47631,"dembakall",17023,-14.62091667,13.59218667,3,NA,NA,2015,NA,NA,0,0,0,0,0,0,1,5790,NA,NA,NA,NA,0,78,78,79,57,NA,NA,NA,NA,NA,84.7781132265925,22.7498429527412,2.1184236677811,62.0282716383359,13.1034626736683
"GMB","GM",4911,47631,47631,"dembakall lower basic school",17024,-14.62091667,13.59218667,3,NA,NA,2015,NA,NA,50,0,50,0,50,0,1,5794,0,0,0,0,0,79,79,78,57,NA,NA,NA,NA,NA,84.7781132265925,22.7498429527412,2.1184236677811,62.0282716383359,13.1034626736683
"GMB","GM",4911,47631,47631,"demfai njaga",17025,-14.65015667,13.58366667,3,NA,NA,2015,NA,NA,0,0,0,0,0,0,1,5803,NA,NA,NA,NA,0,80,80,81,58,NA,NA,NA,NA,NA,83.2870665858051,23.5644093790666,2.3138771271443,59.7226577054474,14.3990568145607
"GMB","GM",4911,47631,47631,"demfai njaga lower basic school",17026,-14.65015667,13.58366667,3,NA,NA,2015,NA,NA,50,0,50,0,50,0,1,5800,0,0,0,0,0,81,81,80,58,NA,NA,NA,NA,NA,83.2870665858051,23.5644093790666,2.3138771271443,59.7226577054474,14.3990568145607
"GMB","GM",4915,47652,47652,"diabugu",52587,-14.40639,13.3835,1,NA,NA,2005,NA,NA,30,0,30,0,30,0,2,6009,0,0,0,0,3949.49096756916,82,82,82,59,NA,NA,NA,NA,NA,81.3948540951757,33.2169181570349,0.0130255939307352,48.1779356961308,18.5921213341042
"GMB","GM",4911,47631,47631,"dobo",17027,-14.6391064,13.4745096,1,NA,NA,2015,NA,NA,0,0,0,0,0,0,1,5791,NA,NA,NA,NA,276.856384238185,83,83,83,60,NA,NA,NA,NA,NA,99.3928564463373,0.545735260606353,0.031058961655676,98.8471214488161,0.576084571966236
"GMB","GM",4911,47631,47631,"dobo lbs",52583,-14.640618,13.472589,3,NA,NA,2010,NA,NA,52,1,52,0,52,0,1,5788,0.0192307692307692,0,0,0.0181422351233671,276.856384238185,84,84,84,61,NA,NA,NA,NA,NA,98.8988523813432,1.23367139223222,0.00427846072214592,97.6651807162445,1.09686962213476
"GMB","GM",4911,47631,47631,"dobo lower basic school",17028,-14.63910833,13.469155,3,NA,NA,2015,NA,NA,49,0,49,1,49,0,1,5792,0,0.0204081632653061,0,0.0192529842125529,427.503143993365,85,85,85,62,NA,NA,NA,NA,NA,98.6945065436888,1.17342034935448,0.0667843250004656,97.5210867601286,1.2387090882123
"GMB","GM",4913,47635,47635,"dongoroba lower basic school",16785,-15.29746667,13.38078,3,NA,NA,2015,NA,NA,50,0,50,1,50,0,1,5865,0,0.02,0,0.0188679245283018,9459.50042058675,86,86,86,63,22.1378694048445,20.5202135039251,8.85472822591973,1.61765470326006,5.13103622431692,55.4510869134954,3.0910392417701,0.627676847684378,52.3600483534649,43.9212374840871
"GMB","GM",4913,47639,47639,"dumbuto",16885,-15.8326992,13.3491994,1,NA,NA,2015,NA,NA,0,0,0,0,0,0,1,5892,NA,NA,NA,NA,0,87,87,88,64,NA,NA,NA,NA,NA,76.1179344787781,18.8581986895685,0.740112961078559,57.2597331789549,23.1419553740833
"GMB","GM",4913,47639,47639,"dumbuto lower basic",16886,-15.8326992,13.3491994,1,NA,NA,2015,NA,NA,50,0,50,4,50,0,1,5893,0,0.08,0,0.0754716981132075,0,88,88,87,64,NA,NA,NA,NA,NA,76.1179344787781,18.8581986895685,0.740112961078559,57.2597331789549,23.1419553740833
"GMB","GM",4916,47664,47664,"edma lbs",16948,-16.76182833,13.38840333,3,NA,NA,2015,NA,NA,50,0,50,0,50,0,1,6134,0,0,0,0,645.689451193818,89,89,89,65,NA,NA,NA,NA,NA,83.1829534991274,22.483432924858,0.443521401602018,60.6995220018866,16.3735249167532
"GMB","GM",4914,47645,47645,"essau",16975,-16.5171626,13.4786086,1,NA,NA,2015,NA,NA,0,0,0,0,0,0,1,5944,NA,NA,NA,NA,1470.15487451402,90,90,90,66,NA,NA,NA,NA,NA,126.692466475936,31.3063822435266,0.280391437522239,95.3860796036116,21.6921590593738
"GMB","GM",4914,47645,47645,"essay lower basic school",16976,-16.52984333,13.48219667,3,NA,NA,2015,NA,NA,50,0,50,1,50,0,1,5939,0,0.02,0,0.0188679245283018,1394.84361990536,91,91,91,67,NA,NA,NA,NA,NA,120.647875977077,31.7428254530108,0.272265732207049,88.9050419254245,21.8034794245458
"GMB","GM",4912,47633,47633,"fajara f section",16834,-16.6910322,13.4696557,1,NA,NA,2015,NA,NA,0,0,0,0,0,0,1,5854,NA,NA,NA,NA,1151.12807569164,92,92,92,68,NA,NA,NA,NA,NA,99.8924567694915,25.17041997397,0.00116944852069108,74.7220397396306,0.106373660309257
"GMB","GM",4912,47633,47633,"fajikunda",16835,-16.6661,13.414939,1,NA,NA,2015,NA,NA,0,0,0,0,0,0,1,5846,NA,NA,NA,NA,297.37039757604,93,93,93,69,NA,NA,NA,NA,NA,95.1896237195437,49.3316156530967,0.0594404285798676,45.8580089844599,4.75093432322167
"GMB","GM",4914,47646,47646,"farafenni",17056,-15.6002024,13.5722578,1,NA,NA,2015,NA,NA,0,0,0,0,0,0,1,5960,NA,NA,NA,NA,0,94,94,254,70,17.7384103397357,17.4672776992612,4.09749484328157,0.271133392427683,1.58719868492648,91.2470311174369,13.0527681351528,0.0561256104825279,78.1942636744911,8.69684071468829
"GMB","GM",4916,47662,47662,"farato",16905,-16.661741,13.3159871,1,NA,NA,2015,NA,NA,0,0,0,0,0,0,1,6095,NA,NA,NA,NA,1282.24967849775,95,95,95,71,NA,NA,NA,NA,NA,98.6049053654581,3.77900175369703,0.0356667734796647,94.825903611761,1.35942778396223
"GMB","GM",4915,47648,47648,"fass bajong",16725,-14.13559333,13.23971833,3,NA,NA,2015,NA,NA,0,0,0,0,0,0,1,5977,NA,NA,NA,NA,0,96,96,97,72,55.7858142852783,53.7538146972656,21.7939901351929,2.03199774026871,22.4201974868774,76.9886815194858,32.4529638263652,0.7142513813058,44.5357154202437,22.2970670889704
"GMB","GM",4915,47655,47655,"fass bajong lower basic",17084,-14.13559333,13.23971833,3,NA,NA,2015,NA,NA,49,0,49,0,49,0,1,6040,0,0,0,0,0,97,97,96,72,55.7858142852783,53.7538146972656,21.7939901351929,2.03199774026871,22.4201974868774,76.9886815194858,32.4529638263652,0.7142513813058,44.5357154202437,22.2970670889704
"GMB","GM",4915,47651,47651,"fatoto",16868,-13.8897501,13.4026933,1,NA,NA,2015,NA,NA,0,0,0,0,0,0,1,6002,NA,NA,NA,NA,0,98,98,99,73,NA,NA,NA,NA,NA,88.6973842830873,17.5936584916815,0.151473307305566,71.1037241524012,11.1511439293247
"GMB","GM",4915,47651,47651,"fatoto",52565,-13.8897501,13.4026933,1,NA,NA,2005,NA,NA,31,0,31,0,31,0,2,5999,0,0,0,0,0,99,99,98,73,NA,NA,NA,NA,NA,82.9396993460897,31.7396366943842,0.00318258182725005,51.2000625335053,17.0571186759615
"GMB","GM",4915,47655,47655,"foday kunda",17085,-13.9267252,13.4973073,1,NA,NA,2015,NA,NA,0,0,0,0,0,0,1,6041,NA,NA,NA,NA,0,100,100,101,74,NA,NA,NA,NA,NA,90.2649153262334,11.3960802609896,0.102295305374826,78.8688339348861,9.63278864335207
"GMB","GM",4915,47655,47655,"foday kunda basic cycle school",17086,-13.9267252,13.4973073,1,NA,NA,2015,NA,NA,50,0,50,1,50,0,1,6039,0,0.02,0,0.0188679245283018,0,101,101,100,74,NA,NA,NA,NA,NA,90.2649153262334,11.3960802609896,0.102295305374826,78.8688339348861,9.63278864335207
"GMB","GM",4913,47636,47636,"fonkoi kunda",16789,-15.5584287,13.4057893,1,NA,NA,2015,NA,NA,0,0,0,0,0,0,1,5870,NA,NA,NA,NA,0,102,102,103,75,NA,NA,NA,NA,NA,98.2493628395129,0.872874534335983,0.0435107198220308,97.3764856221162,1.70712682942842
"GMB","GM",4913,47636,47636,"fonkoi kunda lower basic",16790,-15.5584287,13.4057893,1,NA,NA,2015,NA,NA,49,0,49,0,49,0,1,5869,0,0,0,0,0,103,103,102,75,NA,NA,NA,NA,NA,98.2493628395129,0.872874534335983,0.0435107198220308,97.3764856221162,1.70712682942842
"GMB","GM",4911,47631,47631,"fory lower basic school",17029,-14.49925,13.50314167,3,NA,NA,2015,NA,NA,51,2,51,0,51,0,1,5798,0.0392156862745098,0,0,0.0369959304476507,0,104,104,105,76,NA,NA,NA,NA,NA,81.9957427491612,16.1828895861113,1.07534949408159,65.8128530686441,16.9289080654642
"GMB","GM",4911,47631,47631,"fory village",17030,-14.49925,13.50314167,3,NA,NA,2015,NA,NA,0,0,0,0,0,0,1,5804,NA,NA,NA,NA,0,105,105,104,76,NA,NA,NA,NA,NA,81.9957427491612,16.1828895861113,1.07534949408159,65.8128530686441,16.9289080654642
"GMB","GM",4911,47623,47623,"galle manda",52558,-14.782556,13.438355,3,NA,NA,2010,NA,NA,51,0,51,0,51,0,1,5731,0,0,0,0,513.650552714135,106,106,106,77,NA,NA,NA,NA,NA,84.2984105943252,31.0423457594646,0.00967227000732069,53.2560653614898,15.6919152195049
"GMB","GM",4912,47633,47633,"galleh manda",16836,-16.67444,13.4401962,1,NA,NA,2015,NA,NA,0,0,0,0,0,0,1,5823,NA,NA,NA,NA,577.446981537744,107,107,107,78,NA,NA,NA,NA,NA,100,2.07772045161687,2.79566351581478e-17,97.9222797180442,2.49941037540199e-15
"GMB","GM",4911,47623,47623,"galleh manda",16764,-14.778348,13.4401962,1,NA,NA,2015,NA,NA,50,0,50,0,50,0,1,5734,0,0,0,0,513.650552714135,108,108,108,79,NA,NA,NA,NA,NA,89.1521293314294,24.3079986793731,0.112544914881301,64.8441254948464,10.7353280337374
"GMB","GM",4915,47650,47650,"gambissara",16813,-14.3108301,13.2408899,1,NA,NA,2015,NA,NA,0,0,0,0,0,0,1,5992,NA,NA,NA,NA,0,109,109,110,80,55.3679191712712,49.6514313415089,10.9296724793558,5.71648979028575,5.56229464138864,45.2222770564464,28.1442398944733,0.316926433603667,17.0780378650565,54.4607960542894
"GMB","GM",4915,47650,47650,"gambissara lower basic",16814,-14.3108301,13.2408899,1,NA,NA,2015,NA,NA,49,0,49,0,49,0,1,5988,0,0,0,0,0,110,110,109,80,55.3679191712712,49.6514313415089,10.9296724793558,5.71648979028575,5.56229464138864,45.2222770564464,28.1442398944733,0.316926433603667,17.0780378650565,54.4607960542894
"GMB","GM",4915,47648,47648,"gambrisara",52551,-14.311352,13.237221,3,NA,NA,2005,NA,NA,31,0,31,0,31,0,2,5980,0,0,0,0,423.574276644871,111,111,111,81,55.8136021676478,51.517907830127,14.6295076415373,4.29569294569268,10.2221370475468,47.1666384153636,37.5720309832351,0.127483443863924,9.59460854447481,52.7058780054712
"GMB","GM",4916,47664,47664,"ghana town",16933,-16.7680653,13.3851857,1,NA,NA,2015,NA,NA,0,0,0,0,0,0,1,6135,NA,NA,NA,NA,0,112,112,42,31,NA,NA,NA,NA,NA,82.0532960023294,23.0403343228518,0.463826039888919,59.0129646086774,17.4828766383004
"GMB","GM",4912,47633,47633,"god's time lbs",16837,-16.67444,13.4540922,1,NA,NA,2015,NA,NA,50,0,50,0,50,0,1,5826,0,0,0,0,0,113,113,249,82,NA,NA,NA,NA,NA,100,12.778896113838,1.71945622473143e-16,87.2211049296521,1.53724749199324e-14
"GMB","GM",4912,47633,47633,"gola fortunate",16838,-16.67189667,13.46096833,3,NA,NA,2015,NA,NA,50,1,50,0,50,0,1,5821,0.02,0,0,0.0188679245283018,262.788927603944,114,114,114,83,NA,NA,NA,NA,NA,100,18.0879624617742,2.43159404325019e-16,81.912038882951,2.1743343211331e-14
"GMB","GM",4912,47633,47633,"govi resource centre for the blind",16839,-16.67557167,13.45669833,3,NA,NA,2015,NA,NA,50,0,50,1,50,0,1,5827,0,0.02,0,0.0188679245283018,92.7366418062537,115,115,115,84,NA,NA,NA,NA,NA,100,14.7808193880141,1.98963190427926e-16,85.2191818671013,1.77864249345029e-14
"GMB","GM",4916,47664,47664,"grace baptist lbs",16949,-16.76776167,13.38631833,3,NA,NA,2015,NA,NA,50,0,50,5,50,0,1,6129,0,0.1,0,0.0943396226415094,133.939594661516,116,116,116,85,NA,NA,NA,NA,NA,82.1110704781222,23.010353981277,0.470644133643666,59.1007192143942,17.418284233109
"GMB","GM",4916,47664,47664,"immaculate heart lbs",16950,-16.76958667,13.38389,3,NA,NA,2015,NA,NA,50,0,50,2,50,1,1,6153,0,0.04,0.02,0.0558490566037735,225.087352390069,117,117,117,86,NA,NA,NA,NA,NA,81.7594649028738,23.1768293470267,0.464086912505382,58.5826389094821,17.7764465321932
"GMB","GM",4916,47664,47664,"jabang",16934,-16.70639833,13.35980833,3,NA,NA,2015,NA,NA,0,0,0,0,0,0,1,6142,NA,NA,NA,NA,0,118,118,119,87,NA,NA,NA,NA,NA,96.3288427846043,16.4053074946858,0.0360915170882198,79.9235366927036,3.6350656803844
"GMB","GM",4916,47664,47664,"jabang lbs",16951,-16.70639833,13.35980833,3,NA,NA,2015,NA,NA,50,0,50,0,50,0,1,6136,0,0,0,0,0,119,119,118,87,NA,NA,NA,NA,NA,96.3288427846043,16.4053074946858,0.0360915170882198,79.9235366927036,3.6350656803844
"GMB","GM",4911,47623,47623,"jahanka",16765,-15.207362,13.730301,1,NA,NA,2015,NA,NA,0,0,0,0,0,0,1,5735,NA,NA,NA,NA,8727.78324379458,120,120,120,88,1.49936782157313,1.26960127974667,0.57131262978752,0.229766588830895,0.656117945362959,81.1656119689733,16.9032641080842,0.693699046468244,64.262349327546,18.1406915491268
"GMB","GM",4911,47623,47623,"jahanka lower basic school",16766,-14.73116,13.37859333,3,NA,NA,2015,NA,NA,48,2,48,2,48,0,1,5743,0.0416666666666666,0.0416666666666666,0,0.0769785115303983,8791.64386409244,121,121,121,89,51.162955676266,44.1869889361617,24.1252310897566,6.97596627907429,16.0834546920759,50.7396730701521,15.2880063534528,0.469575786583655,35.4516699484212,48.7907476767998
"GMB","GM",4914,47646,47646,"jajari",17057,-15.74612,13.5762536,1,NA,NA,2015,NA,NA,0,0,0,0,0,0,1,5956,NA,NA,NA,NA,221.385168596275,122,122,122,90,24.2920449141186,24.2918545143014,5.74844259721743,0.000188596866590821,2.97253796388904,67.2295569975156,19.2205343599004,0.397109819655194,48.0090209142572,32.3733344074878
"GMB","GM",4914,47646,47646,"jajari lower basic school",17058,-15.74570333,13.57436333,3,NA,NA,2015,NA,NA,50,0,50,0,50,0,1,5968,0,0,0,0,221.385168596275,123,123,123,91,20.8519108460962,20.8517499242155,5.02988286967876,0.000159358879075981,2.59458344843743,69.5437324534944,19.8116479588833,0.402211526327692,49.732082563878,30.0540573831979
"GMB","GM",4916,47657,47657,"jakoi sibrik",52556,-16.292433,13.269622,3,NA,NA,2010,NA,NA,50,7,50,0,50,0,1,6069,0.14,0,0,0.132075471698113,3620.97620912467,124,124,124,92,NA,NA,NA,NA,NA,80.0334697594741,24.5197136562168,0.0370448499513957,55.5137543450771,19.9294875263311
"GMB","GM",4911,47628,47628,"jamagan lower basic school",17000,-15.18384833,13.58508,3,NA,NA,2015,NA,NA,45,0,45,0,45,0,1,5765,0,0,0,0,0,125,125,126,93,29.0336780548096,26.0247764587402,16.204080581665,3.00890350341797,4.76223850250244,81.0182770272727,24.517456714282,0.305494486201075,56.5008218385464,18.6762292339615
"GMB","GM",4911,47628,47628,"jamagen village",17001,-15.18384833,13.58508,3,NA,NA,2015,NA,NA,0,0,0,0,0,0,1,5768,NA,NA,NA,NA,0,126,126,125,93,29.0336780548096,26.0247764587402,16.204080581665,3.00890350341797,4.76223850250244,81.0182770272727,24.517456714282,0.305494486201075,56.5008218385464,18.6762292339615
"GMB","GM",4911,47631,47631,"jamali lower basic school",17032,-14.7695962,13.5336211,1,NA,NA,2015,NA,NA,50,0,50,0,50,0,1,5796,0,0,0,0,5431.90160572944,127,127,127,94,NA,NA,NA,NA,NA,99.6581602633547,11.2408915498551,0.0192687896606439,88.4172676180603,0.322571741865448
"GMB","GM",4916,47657,47657,"janack lower basic school",16729,-16.2312539,13.1715653,1,NA,NA,2015,NA,NA,50,0,50,0,50,0,1,6068,0,0,0,0,3989.79298779286,128,128,128,95,22.2950990807216,18.2051694107437,12.2060064270463,4.08992938799536,3.73782626374682,60.404994593718,20.2338164151384,0.578303936888784,40.171176297027,39.0167002511435
"GMB","GM",4916,47657,47657,"janak",16734,-16.2410426,13.206978,3,NA,NA,2015,NA,NA,0,0,0,0,0,0,1,6067,NA,NA,NA,NA,1096.66779772276,129,129,129,96,NA,NA,NA,NA,NA,79.3158164148246,9.75639973306934,0.627690084415832,69.5594162202764,20.0564930719461
"GMB","GM",4913,47634,47634,"jappineh",16781,-15.41695333,13.42582833,3,NA,NA,2015,NA,NA,0,0,0,0,0,0,1,5862,NA,NA,NA,NA,0,130,130,131,97,NA,NA,NA,NA,NA,87.6957780107962,11.0597853285089,0.252569371619515,76.6359901340302,12.0516551780009
"GMB","GM",4913,47634,47634,"jappineh basic cycle",16782,-15.41695333,13.42582833,3,NA,NA,2015,NA,NA,50,0,50,5,50,0,1,5860,0,0.1,0,0.0943396226415094,0,131,131,130,97,NA,NA,NA,NA,NA,87.6957780107962,11.0597853285089,0.252569371619515,76.6359901340302,12.0516551780009
"GMB","GM",4915,47654,47654,"jar kunda",17094,-14.19176667,13.47772667,3,NA,NA,2015,NA,NA,0,0,0,0,0,0,1,6026,NA,NA,NA,NA,0,132,132,133,98,NA,NA,NA,NA,NA,85.2972214052939,22.4741040714916,0.441690298713835,62.8231171886109,14.2610872287832
"GMB","GM",4915,47654,47654,"jar kunda lower basic",17095,-14.19176667,13.47772667,3,NA,NA,2015,NA,NA,49,0,49,0,49,0,1,6024,0,0,0,0,0,133,133,132,98,NA,NA,NA,NA,NA,85.2972214052939,22.4741040714916,0.441690298713835,62.8231171886109,14.2610872287832
"GMB","GM",4911,47627,47627,"jareng lower basic school",16990,-15.19298667,13.62116833,3,NA,NA,2015,NA,NA,50,0,50,0,50,0,1,5758,0,0,0,0,164.315613114268,134,134,134,99,NA,NA,NA,NA,NA,84.958146690843,29.0721752653782,0.0738849636145719,55.8859748688877,14.9679658156912
"GMB","GM",4911,47627,47627,"jarreng",16991,-15.1916922,13.6218577,1,NA,NA,2015,NA,NA,0,0,0,0,0,0,1,5757,NA,NA,NA,NA,0,135,135,136,100,NA,NA,NA,NA,NA,84.7205737069661,28.9474367721491,0.0759248762409375,55.7731402798344,15.203498857826
"GMB","GM",4911,47627,47627,"jarreng badala",16992,-15.1916922,13.6218577,1,NA,NA,2015,NA,NA,0,0,0,0,0,0,1,5755,NA,NA,NA,NA,0,136,136,135,100,NA,NA,NA,NA,NA,84.7205737069661,28.9474367721491,0.0759248762409375,55.7731402798344,15.203498857826
"GMB","GM",4911,47627,47627,"jarreng badala lower basic school",16993,-15.1916922,13.6218577,1,NA,NA,2015,NA,NA,53,2,53,2,53,0,1,5762,0.0377358490566037,0.0377358490566037,0,0.0698563243482875,0,137,137,135,100,NA,NA,NA,NA,NA,84.7205737069661,28.9474367721491,0.0759248762409375,55.7731402798344,15.203498857826
"GMB","GM",4911,47631,47631,"jarumeh koto",17033,-14.7827242,13.5793082,1,NA,NA,2015,NA,NA,0,0,0,0,0,0,1,5802,NA,NA,NA,NA,0,138,138,139,101,NA,NA,NA,NA,NA,87.0229471913908,27.700391758049,0.527898272494628,59.3225530382705,12.4491561569611
"GMB","GM",4911,47631,47631,"jarumeh koto basic cycle school",17034,-14.7827242,13.5793082,1,NA,NA,2015,NA,NA,50,0,50,0,50,0,1,5801,0,0,0,0,0,139,139,138,101,NA,NA,NA,NA,NA,87.0229471913908,27.700391758049,0.527898272494628,59.3225530382705,12.4491561569611
"GMB","GM",4913,47639,47639,"jataba lower basic",16887,-15.8268282,13.2739715,1,NA,NA,2015,NA,NA,50,0,50,9,50,0,1,5891,0,0.18,0,0.169811320754717,0,140,140,141,102,NA,NA,NA,NA,NA,75.443002768963,10.4472204171049,0.978724326758742,64.995783159458,23.5782736491655
"GMB","GM",4913,47639,47639,"jataba village",16888,-15.8268282,13.2739715,1,NA,NA,2015,NA,NA,0,0,0,0,0,0,1,5894,NA,NA,NA,NA,0,141,141,140,102,NA,NA,NA,NA,NA,75.443002768963,10.4472204171049,0.978724326758742,64.995783159458,23.5782736491655
"GMB","GM",4911,47628,47628,"jawula bah kunda",17002,-15.2553203,13.610159,1,NA,NA,2015,NA,NA,0,0,0,0,0,0,1,5767,NA,NA,NA,NA,0,142,142,143,103,NA,NA,NA,NA,NA,95.1928421129881,33.0781892159868,0.022991343078979,62.1146526097954,4.7841678739059
"GMB","GM",4911,47628,47628,"jawula bah kunda lower basic school",17003,-15.2553203,13.610159,1,NA,NA,2015,NA,NA,50,0,50,0,50,0,1,5771,0,0,0,0,0,143,143,142,103,NA,NA,NA,NA,NA,95.1928421129881,33.0781892159868,0.022991343078979,62.1146526097954,4.7841678739059
"GMB","GM",4916,47663,47663,"jiboro",16918,-16.5731392,13.1872459,1,NA,NA,2015,NA,NA,0,0,0,0,0,0,1,6126,NA,NA,NA,NA,0,144,144,145,104,0.546758602220439,0.502003118189162,0.02828362795956,0.0447554776274487,0.0304485091633181,80.8596543393376,17.0276689228461,0.321491877167761,63.8319923004204,18.8188494595408
"GMB","GM",4916,47663,47663,"jiboro basic cycle",16919,-16.5731392,13.1872459,1,NA,NA,2015,NA,NA,49,0,49,0,49,0,1,6119,0,0,0,0,0,145,145,144,104,0.546758602220439,0.502003118189162,0.02828362795956,0.0447554776274487,0.0304485091633181,80.8596543393376,17.0276689228461,0.321491877167761,63.8319923004204,18.8188494595408
"GMB","GM",4911,47624,47624,"jimbala",16986,-15.383333,13.75,1,NA,NA,2015,NA,NA,0,0,0,0,0,0,1,5750,NA,NA,NA,NA,0,146,146,147,105,24.9545726776123,19.9091033935547,11.096209526062,5.04546928405762,13.94921875,71.2948818924101,12.8315144626192,0.197727326733093,58.4633692074942,28.507391535778
"GMB","GM",4911,47624,47624,"jimbala basic cycle",16987,-15.383333,13.75,1,NA,NA,2015,NA,NA,50,0,50,0,50,0,1,5749,0,0,0,0,0,147,147,146,105,24.9545726776123,19.9091033935547,11.096209526062,5.04546928405762,13.94921875,71.2948818924101,12.8315144626192,0.197727326733093,58.4633692074942,28.507391535778
"GMB","GM",4913,47639,47639,"jissay",52571,-16.088049,13.309254,3,NA,NA,2010,NA,NA,48,2,48,0,48,0,1,5905,0.0416666666666666,0,0,0.0393081761006289,3127.3786877019,148,148,148,106,NA,NA,NA,NA,NA,63.0568136151465,14.5125011558044,0.041462350384509,48.5443108244486,36.9017247370412
"GMB","GM",4911,47629,47629,"jockul ndowen",17007,-14.89157333,13.77997167,3,NA,NA,2015,NA,NA,50,0,50,0,50,0,1,5777,0,0,0,0,0,149,149,150,107,3.93755331542628,3.88530927058897,17.2978856336041,0.0522440902198476,0.70097295181849,64.8312167984491,18.5917343940386,0.230556255367819,46.239483762899,34.9382259087245
"GMB","GM",4911,47629,47629,"jockul. ndowen",17008,-14.89157333,13.77997167,3,NA,NA,2015,NA,NA,0,0,0,0,0,0,1,5778,NA,NA,NA,NA,0,150,150,149,107,3.93755331542628,3.88530927058897,17.2978856336041,0.0522440902198476,0.70097295181849,64.8312167984491,18.5917343940386,0.230556255367819,46.239483762899,34.9382259087245
"GMB","GM",4916,47661,47661,"jomo kunda",16752,-15.995655,13.26651667,3,NA,NA,2015,NA,NA,0,0,0,0,0,0,1,6085,NA,NA,NA,NA,0,151,151,152,108,NA,NA,NA,NA,NA,82.1589006272744,20.7795515017935,0.731676687971376,61.3793464223934,17.1094241511211
"GMB","GM",4916,47661,47661,"jomo kunda lower basic",16753,-15.995655,13.26651667,3,NA,NA,2015,NA,NA,50,0,50,0,50,0,1,6090,0,0,0,0,0,152,152,151,108,NA,NA,NA,NA,NA,82.1589006272744,20.7795515017935,0.731676687971376,61.3793464223934,17.1094241511211
"GMB","GM",4913,47639,47639,"jouli",52572,-16.095821,13.399342,3,NA,NA,2010,NA,NA,50,2,50,0,50,0,1,5906,0.04,0,0,0.0377358490566037,0,153,153,154,109,NA,NA,NA,NA,NA,68.1668942629481,14.192537186064,0.0160333553415655,53.9743585021451,31.8170717261115
"GMB","GM",4913,47639,47639,"jouli",16889,-16.095821,13.399342,3,NA,NA,2015,NA,NA,0,0,0,0,0,0,1,5896,NA,NA,NA,NA,0,154,154,153,109,NA,NA,NA,NA,NA,74.5518508375013,11.0333222609573,0.211987782215032,63.5185302407434,25.2361591248306
"GMB","GM",4913,47639,47639,"jouli lower basic school",16890,-16.096895,13.40004833,3,NA,NA,2015,NA,NA,50,0,50,0,50,0,1,5904,0,0,0,0,144.316265896324,155,155,155,110,NA,NA,NA,NA,NA,74.8418689080089,10.9497653434576,0.212046484437172,63.8921051094056,24.9460823643825
"GMB","GM",4914,47647,47647,"jurunku",52593,-16.2558918,13.4183703,1,NA,NA,2010,NA,NA,50,0,50,0,50,0,1,5975,0,0,0,0,10177.9836398254,156,156,156,111,NA,NA,NA,NA,NA,78.2648240849152,26.8939361602207,0.02553010236538,51.3708850431295,21.7096482407588
"GMB","GM",4916,47663,47663,"kafuta",16920,-16.4612009,13.2002015,1,NA,NA,2015,NA,NA,0,0,0,0,0,0,1,6123,NA,NA,NA,NA,0,157,157,158,112,NA,NA,NA,NA,NA,79.1114805776302,42.0611287143132,0.259248788469732,37.0503537307378,20.6292721887075
"GMB","GM",4916,47663,47663,"kafuta lower basic school",16921,-16.4612009,13.2002015,1,NA,NA,2015,NA,NA,50,1,50,0,50,0,1,6121,0.02,0,0,0.0188679245283018,0,158,158,157,112,NA,NA,NA,NA,NA,79.1114805776302,42.0611287143132,0.259248788469732,37.0503537307378,20.6292721887075
"GMB","GM",4912,47633,47633,"kairaba avenue",16840,-16.6849975,13.458663,1,NA,NA,2015,NA,NA,0,0,0,0,0,0,1,5850,NA,NA,NA,NA,367.650744622812,159,159,159,113,NA,NA,NA,NA,NA,100,16.2470740550378,2.19442569952756e-16,83.7529277668539,1.96033749352321e-14
"GMB","GM",4916,47660,47660,"kampasa",16748,-15.81423,13.16949833,3,NA,NA,2015,NA,NA,0,0,0,0,0,0,1,6082,NA,NA,NA,NA,0,160,160,161,114,48.7305792520009,41.6015708081106,30.3393799737824,7.12900861948593,14.129701046913,43.4378082564267,15.9563150563407,0.145975126763477,27.4814934540743,56.416217758529
"GMB","GM",4916,47660,47660,"kampasa lbs",16749,-15.81423,13.16949833,3,NA,NA,2015,NA,NA,50,0,50,0,50,0,1,6081,0,0,0,0,0,161,161,160,114,48.7305792520009,41.6015708081106,30.3393799737824,7.12900861948593,14.129701046913,43.4378082564267,15.9563150563407,0.145975126763477,27.4814934540743,56.416217758529
"GMB","GM",4916,47657,47657,"kandonku",16735,-16.3117979,13.2441831,1,NA,NA,2015,NA,NA,0,0,0,0,0,0,1,6061,NA,NA,NA,NA,0,162,162,163,115,NA,NA,NA,NA,NA,82.6274743678936,16.6207918823579,0.351028987698296,66.0066764555905,17.0214995637478
"GMB","GM",4916,47657,47657,"kandonku lower basic school",16730,-16.3117979,13.2441831,1,NA,NA,2015,NA,NA,50,0,50,0,50,0,1,6066,0,0,0,0,0,163,163,162,115,NA,NA,NA,NA,NA,82.6274743678936,16.6207918823579,0.351028987698296,66.0066764555905,17.0214995637478
"GMB","GM",4916,47661,47661,"kanfenda",16754,-16.0427102,13.2294462,1,NA,NA,2015,NA,NA,0,0,0,0,0,0,1,6091,NA,NA,NA,NA,0,164,164,165,116,NA,NA,NA,NA,NA,91.4486716713154,14.1689217113043,0.403444522653565,77.2797482784882,8.14788530546624
"GMB","GM",4916,47661,47661,"kanfenda ahmadiyya muslim basic cycle school",16755,-16.0427102,13.2294462,1,NA,NA,2015,NA,NA,49,0,49,0,49,0,1,6088,0,0,0,0,0,165,165,164,116,NA,NA,NA,NA,NA,91.4486716713154,14.1689217113043,0.403444522653565,77.2797482784882,8.14788530546624
"GMB","GM",4912,47633,47633,"kanifing",16841,-16.6733441,13.4540922,1,NA,NA,2015,NA,NA,0,0,0,0,0,0,1,5810,NA,NA,NA,NA,121.995029960293,166,166,166,117,NA,NA,NA,NA,NA,100,12.7831079000317,1.71934654416684e-16,87.2168931035002,1.53727537999167e-14
"GMB","GM",4912,47633,47633,"kanifing estate",16842,-16.6696578,13.4602404,1,NA,NA,2015,NA,NA,0,0,0,0,0,0,1,5812,NA,NA,NA,NA,262.788927603944,167,167,167,118,NA,NA,NA,NA,NA,100,17.5387542930726,2.35587072532041e-16,82.4612468980679,2.10697512433996e-14
"GMB","GM",4916,47661,47661,"kanilai",16756,-16.0008363,13.1755135,1,NA,NA,2015,NA,NA,0,0,0,0,0,0,1,6083,NA,NA,NA,NA,342.632915493441,168,168,168,119,16.9420734689892,14.1371118754618,8.54861223603446,2.80496172509396,3.2725660810857,76.609912610807,22.0829143902885,0.517421629850059,54.5269991636871,22.87266351603
"GMB","GM",4916,47657,47657,"kanuma",16736,-16.271725,13.229515,3,NA,NA,2015,NA,NA,0,0,0,0,0,0,1,6070,NA,NA,NA,NA,0,169,169,170,120,NA,NA,NA,NA,NA,75.0681551580256,17.7669315860346,0.505809596234782,57.3012215008493,24.4260350878226
"GMB","GM",4916,47657,47657,"kanuma basic cycle school",16731,-16.271725,13.229515,3,NA,NA,2015,NA,NA,50,0,50,0,50,0,1,6063,0,0,0,0,0,170,170,169,120,NA,NA,NA,NA,NA,75.0681551580256,17.7669315860346,0.505809596234782,57.3012215008493,24.4260350878226
"GMB","GM",4916,47661,47661,"kappa",16757,-16.10054333,13.18383833,3,NA,NA,2015,NA,NA,0,0,0,0,0,0,1,6089,NA,NA,NA,NA,0,171,171,172,121,5.12971707884399,4.16025616690481,2.65689689147244,0.969460919198723,0.99704514287948,76.493002275222,22.8318194928458,0.580747866681762,53.6611764262315,22.9262533915419
"GMB","GM",4916,47661,47661,"kappa basic cycle school",16758,-16.10054333,13.18383833,3,NA,NA,2015,NA,NA,50,0,50,0,50,0,1,6093,0,0,0,0,0,172,172,171,121,5.12971707884399,4.16025616690481,2.65689689147244,0.969460919198723,0.99704514287948,76.493002275222,22.8318194928458,0.580747866681762,53.6611764262315,22.9262533915419
"GMB","GM",4916,47662,47662,"kassa kunda",16906,-16.69092,13.24885167,3,NA,NA,2015,NA,NA,0,0,0,0,0,0,1,6107,NA,NA,NA,NA,0,173,173,174,122,NA,NA,NA,NA,NA,92.365135072211,9.62583543138312,0.0706336758125776,82.7393008127508,7.56422984439363
"GMB","GM",4916,47662,47662,"kassa lower basic",16907,-16.69092,13.24885167,3,NA,NA,2015,NA,NA,50,1,50,0,50,0,1,6097,0.02,0,0,0.0188679245283018,0,174,174,173,122,NA,NA,NA,NA,NA,92.365135072211,9.62583543138312,0.0706336758125776,82.7393008127508,7.56422984439363
"GMB","GM",4914,47643,47643,"kataba lower basic",16797,-15.5192291,13.5461508,1,NA,NA,2015,NA,NA,49,0,49,0,49,0,1,5910,0,0,0,0,0,175,175,176,123,NA,NA,NA,NA,NA,85.7599915983337,20.2402789468789,0.348078268877208,65.5197107726942,13.8919312389889
"GMB","GM",4914,47646,47646,"kataba village",17059,-15.5192291,13.5461508,1,NA,NA,2015,NA,NA,0,0,0,0,0,0,1,5967,NA,NA,NA,NA,0,176,176,175,123,NA,NA,NA,NA,NA,85.7599915983337,20.2402789468789,0.348078268877208,65.5197107726942,13.8919312389889
"GMB","GM",4914,47646,47646,"katchang",17060,-15.7541892,13.507686,1,NA,NA,2015,NA,NA,50,0,50,0,50,0,1,5971,0,0,0,0,7692.93099216149,177,177,177,124,NA,NA,NA,NA,NA,82.9476467739739,22.0245874676849,0.617472183788921,60.9230593062889,16.4348820807966
"GMB","GM",4911,47629,47629,"kayai",52582,-14.874342,13.584397,3,NA,NA,2010,NA,NA,52,0,52,0,52,0,1,5773,0,0,0,0,9984.62024217844,178,178,178,125,NA,NA,NA,NA,NA,72.3970532352852,23.6509948787989,0.0390715674107431,48.7460592273053,27.5638746757858
"GMB","GM",4916,47662,47662,"kembujeh",16908,-16.62777351,13.28956758,3,NA,NA,2015,NA,NA,0,0,0,0,0,0,1,6096,NA,NA,NA,NA,494.989280299021,179,179,179,126,NA,NA,NA,NA,NA,99.9218724977926,0.11249846453112,0.000310092073786777,99.8093731741889,0.0778184392158924
"GMB","GM",4916,47662,47662,"kembujeh lower basic",16909,-16.623915,13.29171833,3,NA,NA,2015,NA,NA,50,2,50,0,50,0,1,6099,0.04,0,0,0.0377358490566037,494.989280299021,180,180,180,127,NA,NA,NA,NA,NA,99.8942832095587,0.152225224969344,0.000419595377502638,99.742056822151,0.105298587547615
"GMB","GM",4914,47644,47644,"kerewan",16962,-16.0904721,13.4929172,1,NA,NA,2015,NA,NA,0,0,0,0,0,0,1,5929,NA,NA,NA,NA,0,181,181,184,128,NA,NA,NA,NA,NA,91.3292565697227,5.4064170624609,0.049657984607892,85.9228403780709,8.62108569094269
"GMB","GM",4911,47623,47623,"kerewan dumbokono",16767,-14.592715,13.44960167,3,NA,NA,2015,NA,NA,0,0,0,0,0,0,1,5736,NA,NA,NA,NA,0,182,182,183,129,NA,NA,NA,NA,NA,93.6372681286983,7.52537887000263,0.285331292692085,86.1118868206672,6.07740046992307
"GMB","GM",4911,47623,47623,"kerewan dumbokono lower basic school",16768,-14.592715,13.44960167,3,NA,NA,2015,NA,NA,50,0,50,0,50,0,1,5747,0,0,0,0,0,183,183,182,129,NA,NA,NA,NA,NA,93.6372681286983,7.52537887000263,0.285331292692085,86.1118868206672,6.07740046992307
"GMB","GM",4914,47644,47644,"kerewan lower basic cycle",16963,-16.0904721,13.4929172,1,NA,NA,2015,NA,NA,47,0,47,1,47,0,1,5928,0,0.0212765957446808,0,0.0200722601364913,0,184,184,181,128,NA,NA,NA,NA,NA,91.3292565697227,5.4064170624609,0.049657984607892,85.9228403780709,8.62108569094269
"GMB","GM",4914,47644,47644,"kerr ardo",16964,-16.045649,13.5792309,1,NA,NA,2015,NA,NA,0,0,0,0,0,0,1,5927,NA,NA,NA,NA,0,185,185,186,130,20.9918676776554,20.9123887574407,13.8888193699895,0.0794775577243906,5.27785776183397,88.5883349764746,6.46051217774311,0.0173003145271428,82.1278240211121,11.3943638818899
"GMB","GM",4914,47644,47644,"kerr ardo lower basic school",16965,-16.045649,13.5792309,1,NA,NA,2015,NA,NA,50,0,50,1,50,0,1,5932,0,0.02,0,0.0188679245283018,0,186,186,185,130,20.9918676776554,20.9123887574407,13.8888193699895,0.0794775577243906,5.27785776183397,88.5883349764746,6.46051217774311,0.0173003145271428,82.1278240211121,11.3943638818899
"GMB","GM",4914,47647,47647,"kerr cherno",17076,-16.33797,13.45755,3,NA,NA,2015,NA,NA,0,0,0,0,0,0,1,5974,NA,NA,NA,NA,0,187,187,188,131,NA,NA,NA,NA,NA,88.2387186260756,16.0327258958131,0.350702014414627,72.2059910379598,11.4105789363784
"GMB","GM",4914,47645,47645,"kerr cherno lower basic school",16977,-16.33797,13.45755,3,NA,NA,2015,NA,NA,50,0,50,0,50,0,1,5937,0,0,0,0,0,188,188,187,131,NA,NA,NA,NA,NA,88.2387186260756,16.0327258958131,0.350702014414627,72.2059910379598,11.4105789363784
"GMB","GM",4914,47643,47643,"kerr jarga",16798,-16.20468333,13.53550667,3,NA,NA,2015,NA,NA,0,0,0,0,0,0,1,5916,NA,NA,NA,NA,0,189,189,190,132,NA,NA,NA,NA,NA,81.2316905696608,10.6736880153598,0.297183031838768,70.558004498592,18.4711256379718
"GMB","GM",4914,47643,47643,"kerr jarga lower basic school",16799,-16.20468333,13.53550667,3,NA,NA,2015,NA,NA,50,0,50,0,50,0,1,5923,0,0,0,0,0,190,190,189,132,NA,NA,NA,NA,NA,81.2316905696608,10.6736880153598,0.297183031838768,70.558004498592,18.4711256379718
"GMB","GM",4911,47628,47628,"kerr layan",52581,-15.283916,13.605978,3,NA,NA,2010,NA,NA,52,0,52,0,52,0,1,5770,0,0,0,0,3219.07634596801,191,191,191,133,NA,NA,NA,NA,NA,89.4377738805851,51.9255386451076,0.00870774350039225,37.5122298168236,10.5535227148376
"GMB","GM",4914,47646,47646,"kerr ndongo",17061,-15.71646,13.58864167,3,NA,NA,2015,NA,NA,0,0,0,0,0,0,1,5949,NA,NA,NA,NA,0,192,192,193,134,36.2077734069106,36.2030819406852,18.2686096346279,0.00468855699476042,8.26801106511781,70.9029736656593,10.6613326164018,0.239169535738144,60.2416412991117,28.8578561566358
"GMB","GM",4914,47643,47643,"kerr ndongo lower basic school",16800,-15.71646,13.58864167,3,NA,NA,2015,NA,NA,48,0,48,2,48,0,1,5911,0,0.0416666666666666,0,0.0393081761006289,0,193,193,192,134,36.2077734069106,36.2030819406852,18.2686096346279,0.00468855699476042,8.26801106511781,70.9029736656593,10.6613326164018,0.239169535738144,60.2416412991117,28.8578561566358
"GMB","GM",4914,47643,47643,"kerr ngorr",16801,-16.2411822,13.5565151,1,NA,NA,2015,NA,NA,0,0,0,0,0,0,1,5922,NA,NA,NA,NA,0,194,194,195,135,NA,NA,NA,NA,NA,75.9576135028164,16.6106464963844,0.337659727108354,59.3469678182596,23.7047266945951
"GMB","GM",4914,47643,47643,"kerr ngorr lower basic school",16802,-16.2411822,13.5565151,1,NA,NA,2015,NA,NA,50,0,50,0,50,0,1,5912,0,0,0,0,0,195,195,194,135,NA,NA,NA,NA,NA,75.9576135028164,16.6106464963844,0.337659727108354,59.3469678182596,23.7047266945951
"GMB","GM",4916,47657,47657,"killy",16737,-16.2308862,13.2075457,1,NA,NA,2015,NA,NA,0,0,0,0,0,0,1,6064,NA,NA,NA,NA,129.040287563387,196,196,196,136,NA,NA,NA,NA,NA,86.6194455103216,9.51414216437619,0.453327493596355,77.105303389262,12.9272271758645
"GMB","GM",4916,47657,47657,"killy lower basic school",16732,-16.2312054,13.2064608,3,NA,NA,2015,NA,NA,50,0,50,0,50,0,1,6062,0,0,0,0,129.040287563387,197,197,197,137,NA,NA,NA,NA,NA,85.7805036219129,9.95175798100194,0.480167610761711,75.8287455654869,13.7393288193749
"GMB","GM",4915,47653,47653,"kiskis",17045,-14.15287833,13.30364,3,NA,NA,2015,NA,NA,0,0,0,0,0,0,1,6016,NA,NA,NA,NA,0,198,198,199,138,NA,NA,NA,NA,NA,92.4573893547286,2.93679265643693,0.192904380734617,89.5205953769928,7.34970717995716
"GMB","GM",4915,47653,47653,"kiskis lower basic school",17046,-14.15287833,13.30364,3,NA,NA,2015,NA,NA,49,0,49,4,49,0,1,6019,0,0.0816326530612244,0,0.0770119368502117,0,199,199,198,138,NA,NA,NA,NA,NA,92.4573893547286,2.93679265643693,0.192904380734617,89.5205953769928,7.34970717995716
"GMB","GM",4916,47662,47662,"kiti",16910,-16.661315,13.25406667,3,NA,NA,2015,NA,NA,0,0,0,0,0,0,1,6108,NA,NA,NA,NA,0,200,200,11,10,NA,NA,NA,NA,NA,95.027676001417,7.05292594942795,0.0577190522363644,87.9747488911854,4.91460530479415
"GMB","GM",4916,47662,47662,"kitty",16911,-16.66554167,13.22443167,3,NA,NA,2015,NA,NA,0,0,0,0,0,0,1,6110,NA,NA,NA,NA,0,201,201,202,139,NA,NA,NA,NA,NA,86.9082978344659,17.7713029204856,0.151568998384483,69.1369929170127,12.9401333720702
"GMB","GM",4916,47662,47662,"kitty lower basic",16912,-16.66554167,13.22443167,3,NA,NA,2015,NA,NA,50,4,50,0,50,0,1,6105,0.08,0,0,0.0754716981132075,0,202,202,201,139,NA,NA,NA,NA,NA,86.9082978344659,17.7713029204856,0.151568998384483,69.1369929170127,12.9401333720702
"GMB","GM",4915,47651,47651,"koina",52566,-13.8651056,13.4760557,1,NA,NA,2005,NA,NA,31,0,31,2,31,0,2,5994,0,0.064516129032258,0,0.0608642726719415,4342.24557028054,203,203,203,140,NA,NA,NA,NA,NA,76.4405725962389,25.5416258562723,0.0030697510050645,50.8989457230398,23.5563591292422
"GMB","GM",4915,47654,47654,"koli banta",17096,-14.19707833,13.433345,3,NA,NA,2015,NA,NA,0,0,0,0,0,0,1,6031,NA,NA,NA,NA,0,204,204,205,141,NA,NA,NA,NA,NA,87.7847567778237,27.8997872013828,0.319269395201257,59.8849650587137,11.8959775405716
"GMB","GM",4915,47654,47654,"koli bantang lower basic school",17097,-14.19707833,13.433345,3,NA,NA,2015,NA,NA,48,0,48,2,48,0,1,6027,0,0.0416666666666666,0,0.0393081761006289,0,205,205,204,141,NA,NA,NA,NA,NA,87.7847567778237,27.8997872013828,0.319269395201257,59.8849650587137,11.8959775405716
"GMB","GM",4913,47638,47638,"kolior",16881,-15.671685,13.422346,1,NA,NA,2015,NA,NA,0,0,0,0,0,0,1,5888,NA,NA,NA,NA,0,206,206,207,142,NA,NA,NA,NA,NA,85.0841666476503,24.3358575804026,0.225566383642991,60.7483100060603,14.6902665331939
"GMB","GM",4913,47638,47638,"kolior lower basic school",16882,-15.671685,13.422346,1,NA,NA,2015,NA,NA,50,0,50,0,50,0,1,5889,0,0,0,0,0,207,207,206,142,NA,NA,NA,NA,NA,85.0841666476503,24.3358575804026,0.225566383642991,60.7483100060603,14.6902665331939
"GMB","GM",4912,47633,47633,"kololi",16843,-16.7205154,13.4453044,1,NA,NA,2015,NA,NA,0,0,0,0,0,0,1,5852,NA,NA,NA,NA,1483.44843090215,208,208,208,143,NA,NA,NA,NA,NA,99.7567438230379,7.12656357021178,0.0026452206703491,92.6301809675071,0.240610681062266
"GMB","GM",4914,47646,47646,"konteh kunda lower basic school",17062,-15.79416167,13.567215,3,NA,NA,2015,NA,NA,49,2,49,1,49,0,1,5964,0.0408163265306122,0.0204081632653061,0,0.0569731165473505,0,209,209,210,144,11.0312204415214,10.5087262073529,0.135796690215542,0.522493801321611,0.153366874025469,75.3838846995655,26.0295690048558,0.704744923059727,49.3543163377952,23.9113694292324
"GMB","GM",4914,47646,47646,"konteh kunda nigi",17063,-15.79416167,13.567215,3,NA,NA,2015,NA,NA,0,0,0,0,0,0,1,5962,NA,NA,NA,NA,0,210,210,209,144,11.0312204415214,10.5087262073529,0.135796690215542,0.522493801321611,0.153366874025469,75.3838846995655,26.0295690048558,0.704744923059727,49.3543163377952,23.9113694292324
"GMB","GM",4915,47650,47650,"kossemar",52560,-14.375762,13.3331199,1,NA,NA,2005,NA,NA,31,0,31,0,31,0,2,5989,0,0,0,0,4688.74093701035,211,211,211,145,NA,NA,NA,NA,NA,80.5777985567283,29.5175976126873,0.00305852770778718,51.0601980124626,19.4191452842161
"GMB","GM",4912,47633,47633,"kotu",16844,-16.702825,13.4576795,1,NA,NA,2015,NA,NA,0,0,0,0,0,0,1,5858,NA,NA,NA,NA,1174.90412715477,212,212,212,146,NA,NA,NA,NA,NA,99.7079593516332,16.847467781532,0.00317571364184693,82.8604934177564,0.288864604298845
"GMB","GM",4911,47627,47627,"kudang lower baices school",16994,-15.0601252,13.66379,1,NA,NA,2015,NA,NA,50,0,50,0,50,0,1,5764,0,0,0,0,0,213,213,216,147,NA,NA,NA,NA,NA,94.3582003771234,28.5205320886454,0.0612831522688051,65.837670604895,5.58051621774548
"GMB","GM",4911,47627,47627,"kudang tenda",16995,-15.0796708,13.6884565,1,NA,NA,2015,NA,NA,0,0,0,0,0,0,1,5756,NA,NA,NA,NA,0,214,214,215,148,NA,NA,NA,NA,NA,73.8038028929507,57.6050738308356,2.71815146452796,16.1987247655667,23.4780491119038
"GMB","GM",4911,47627,47627,"kudang tenda lower basic",16996,-15.0796708,13.6884565,1,NA,NA,2015,NA,NA,49,0,49,2,49,0,1,5759,0,0.0408163265306122,0,0.0385059684251058,0,215,215,214,148,NA,NA,NA,NA,NA,73.8038028929507,57.6050738308356,2.71815146452796,16.1987247655667,23.4780491119038
"GMB","GM",4911,47627,47627,"kudang village",16997,-15.0601252,13.66379,1,NA,NA,2015,NA,NA,0,0,0,0,0,0,1,5760,NA,NA,NA,NA,0,216,216,213,147,NA,NA,NA,NA,NA,94.3582003771234,28.5205320886454,0.0612831522688051,65.837670604895,5.58051621774548
"GMB","GM",4915,47653,47653,"kulari",52590,-14.08373,13.39602,1,NA,NA,2010,NA,NA,51,1,51,0,51,0,1,6021,0.0196078431372549,0,0,0.0184979652238253,0,217,217,218,149,NA,NA,NA,NA,NA,70.2080006239589,17.9081417094112,0.0200084728958664,52.299854219301,29.771996003392
"GMB","GM",4915,47653,47653,"kulari",17047,-14.08373,13.39602,1,NA,NA,2015,NA,NA,0,0,0,0,0,0,1,6018,NA,NA,NA,NA,0,218,218,217,149,NA,NA,NA,NA,NA,80.3249059851804,13.0828438966619,0.20535854312674,67.2420602191921,19.4697379178406
"GMB","GM",4915,47653,47653,"kulari lower basic school",17048,-14.08373,13.39602,1,NA,NA,2015,NA,NA,50,0,50,0,50,0,1,6022,0,0,0,0,0,219,219,217,149,NA,NA,NA,NA,NA,80.3249059851804,13.0828438966619,0.20535854312674,67.2420602191921,19.4697379178406
"GMB","GM",4913,47639,47639,"kuli kunda",16891,-15.9222558,13.3378788,1,NA,NA,2015,NA,NA,0,0,0,0,0,0,1,5902,NA,NA,NA,NA,336.264701609824,220,220,220,150,NA,NA,NA,NA,NA,80.7411965595769,15.703919440089,0.479402921536706,65.0372771681482,18.7793997268795
"GMB","GM",4913,47639,47639,"kuli kunda lower basic",16892,-15.9200427,13.3358783,1,NA,NA,2015,NA,NA,50,2,50,3,50,0,1,5899,0.04,0.06,0,0.0920754716981132,336.264701609824,221,221,221,151,NA,NA,NA,NA,NA,80.5159708607372,15.4703721412987,0.498282415403561,65.0455989940638,18.9857459462843
"GMB","GM",4916,47663,47663,"kuloro",16922,-16.5790323,13.2817117,1,NA,NA,2015,NA,NA,0,0,0,0,0,0,1,6124,NA,NA,NA,NA,0,222,222,223,152,NA,NA,NA,NA,NA,98.6674547569358,1.96850511225101,0.0153015591210916,96.6989494876493,1.31724419541183
"GMB","GM",4916,47663,47663,"kuloro lower basic",16923,-16.5790323,13.2817117,1,NA,NA,2015,NA,NA,51,0,51,0,51,0,1,6127,0,0,0,0,0,223,223,222,152,NA,NA,NA,NA,NA,98.6674547569358,1.96850511225101,0.0153015591210916,96.6989494876493,1.31724419541183
"GMB","GM",4915,47648,47648,"kumbi ja islamia",52552,-14.175158,13.264982,3,NA,NA,2010,NA,NA,55,0,55,0,55,0,1,5979,0,0,0,0,3902.60445299007,224,224,224,153,NA,NA,NA,NA,NA,69.9323852100675,16.8349506008238,0.0574240554727475,53.0974320294107,30.0101910742489
"GMB","GM",4914,47646,47646,"kunjata",17064,-15.39339833,13.49647167,3,NA,NA,2015,NA,NA,0,0,0,0,0,0,1,5957,NA,NA,NA,NA,0,225,225,226,154,NA,NA,NA,NA,NA,76.9256116706517,23.4612871675822,0.824644640348848,53.4643222455693,22.2497438259023
"GMB","GM",4914,47646,47646,"kunjata",52591,-15.39339833,13.49647167,3,NA,NA,2010,NA,NA,50,0,50,0,50,0,1,5950,0,0,0,0,0,226,226,225,154,NA,NA,NA,NA,NA,74.0719812441465,28.5952937712207,0.0916158839290494,45.4766907632312,25.8363995996398
"GMB","GM",4914,47643,47643,"kunjata lower basic",16803,-15.39339833,13.49647167,3,NA,NA,2015,NA,NA,50,0,50,0,50,0,1,5913,0,0,0,0,0,227,227,225,154,NA,NA,NA,NA,NA,76.9256116706517,23.4612871675822,0.824644640348848,53.4643222455693,22.2497438259023
"GMB","GM",4911,47629,47629,"kuntaur",17009,-14.8899772,13.6707177,1,NA,NA,2015,NA,NA,0,0,0,0,0,0,1,5775,NA,NA,NA,NA,0,228,228,229,155,NA,NA,NA,NA,NA,90.3084457523351,15.4851783956539,0.124689562756045,74.8232694009102,9.56686409055571
"GMB","GM",4911,47629,47629,"kuntaur lower basic",17010,-14.8899772,13.6707177,1,NA,NA,2015,NA,NA,50,0,50,0,50,0,1,5782,0,0,0,0,0,229,229,228,155,NA,NA,NA,NA,NA,90.3084457523351,15.4851783956539,0.124689562756045,74.8232694009102,9.56686409055571
"GMB","GM",4911,47631,47631,"kunting",17035,-14.6719007,13.5267844,1,NA,NA,2015,NA,NA,0,0,0,0,0,0,1,5807,NA,NA,NA,NA,0,230,230,231,156,NA,NA,NA,NA,NA,79.7353496715061,7.32599163416855,1.26038295952737,72.4093586175522,19.0042664001073
"GMB","GM",4911,47631,47631,"kunting basic cycle school",17036,-14.6719007,13.5267844,1,NA,NA,2015,NA,NA,50,0,50,0,50,0,1,5799,0,0,0,0,0,231,231,230,156,NA,NA,NA,NA,NA,79.7353496715061,7.32599163416855,1.26038295952737,72.4093586175522,19.0042664001073
"GMB","GM",4911,47623,47623,"kusalang",16769,-14.866667,13.45,1,NA,NA,2015,NA,NA,0,0,0,0,0,0,1,5737,NA,NA,NA,NA,0,232,232,233,157,36.1130816618419,32.3691118965783,21.0695063053171,3.7439712005568,12.8130381893325,50.7164829056738,21.9171985388717,0.547053761626715,28.799285835435,48.7364642917529
"GMB","GM",4911,47623,47623,"kusalang lower basic school",16770,-14.866667,13.45,1,NA,NA,2015,NA,NA,50,0,50,2,50,0,1,5740,0,0.04,0,0.0377358490566037,0,233,233,232,157,36.1130816618419,32.3691118965783,21.0695063053171,3.7439712005568,12.8130381893325,50.7164829056738,21.9171985388717,0.547053761626715,28.799285835435,48.7364642917529
"GMB","GM",4915,47652,47652,"kuwonku lower basic school",17043,-14.30719167,13.42194833,3,NA,NA,2015,NA,NA,50,0,50,0,50,0,1,6012,0,0,0,0,0,234,234,235,158,NA,NA,NA,NA,NA,82.7606678271258,25.9246063886286,0.513027673472653,56.8360588773145,16.7263054750015
"GMB","GM",4915,47652,47652,"kuwonku village",17044,-14.30719167,13.42194833,3,NA,NA,2015,NA,NA,0,0,0,0,0,0,1,6010,NA,NA,NA,NA,0,235,235,234,158,NA,NA,NA,NA,NA,82.7606678271258,25.9246063886286,0.513027673472653,56.8360588773145,16.7263054750015
"GMB","GM",4913,47639,47639,"kuyang",16893,-16.1009446,13.3335416,1,NA,NA,2015,NA,NA,0,0,0,0,0,0,1,5903,NA,NA,NA,NA,0,236,236,237,159,NA,NA,NA,NA,NA,72.8984610562295,12.9053442757711,0.285040443968765,59.9931152494219,26.8164994793436
"GMB","GM",4913,47639,47639,"kuyang lower basic school",16894,-16.1009446,13.3335416,1,NA,NA,2015,NA,NA,50,0,50,1,50,0,1,5901,0,0.02,0,0.0188679245283018,0,237,237,236,159,NA,NA,NA,NA,NA,72.8984610562295,12.9053442757711,0.285040443968765,59.9931152494219,26.8164994793436
"GMB","GM",4912,47633,47633,"latrikunda",16845,-16.6852777,13.4486111,3,NA,NA,2015,NA,NA,0,0,0,0,0,0,1,5815,NA,NA,NA,NA,0,238,238,240,160,NA,NA,NA,NA,NA,100,8.53005994191912,1.15223641993713e-16,91.4699410215356,1.02930117947179e-14
"GMB","GM",4912,47633,47633,"latrikunda german",16846,-16.683662,13.4492021,1,NA,NA,2015,NA,NA,0,0,0,0,0,0,1,5830,NA,NA,NA,NA,192.158899274157,239,239,239,161,NA,NA,NA,NA,NA,100,8.98807952545017,1.21339983912144e-16,91.011921447692,1.08406978883121e-14
"GMB","GM",4912,47633,47633,"latrikunda lbs",16847,-16.6852777,13.4486111,3,NA,NA,2015,NA,NA,49,0,49,0,49,0,1,5838,0,0,0,0,0,240,240,238,160,NA,NA,NA,NA,NA,100,8.53005994191912,1.15223641993713e-16,91.4699410215356,1.02930117947179e-14
"GMB","GM",4912,47633,47633,"latrikunda sabiji",16848,-16.677766,13.4160818,1,NA,NA,2015,NA,NA,0,0,0,0,0,0,1,5825,NA,NA,NA,NA,561.698436605642,241,241,241,162,NA,NA,NA,NA,NA,97.9239708786464,49.3232237828387,0.0256529162767066,48.6007484686735,2.0503747121074
"GMB","GM",4916,47664,47664,"latriya",16935,-16.7119103,13.340074,1,NA,NA,2015,NA,NA,0,0,0,0,0,0,1,6144,NA,NA,NA,NA,8.07602179426507,242,242,242,163,NA,NA,NA,NA,NA,96.9203386169611,8.84233037879432,0.0220931732977578,88.0780100015252,3.0575675189057
"GMB","GM",4916,47664,47664,"latriya lbs",16952,-16.71198167,13.34008667,3,NA,NA,2015,NA,NA,49,0,49,0,49,0,1,6154,0,0,0,0,8.07602179426507,243,243,243,164,NA,NA,NA,NA,NA,96.9101359060809,8.87071176778461,0.0221669287923847,88.039425907234,3.06769647277133
"GMB","GM",4915,47654,47654,"limbambulu",52596,-14.123757,13.412352,1,NA,NA,2005,NA,NA,30,0,30,0,30,0,2,6033,0,0,0,0,0,244,244,245,165,NA,NA,NA,NA,NA,79.2728930665801,28.5687932859179,0.00924048476907803,50.7041010551501,20.7178662117298
"GMB","GM",4915,47654,47654,"limbambulu yamadu",17098,-14.123757,13.412352,1,NA,NA,2015,NA,NA,0,0,0,0,0,0,1,6023,NA,NA,NA,NA,0,245,245,244,165,NA,NA,NA,NA,NA,86.3051498309336,17.0978671854379,0.489625069316947,69.2072826719084,13.205227195994
"GMB","GM",4915,47654,47654,"limbambulu yamadu lower basic school",17099,-14.123757,13.412352,1,NA,NA,2015,NA,NA,48,0,48,0,48,0,1,6034,0,0,0,0,0,246,246,244,165,NA,NA,NA,NA,NA,86.3051498309336,17.0978671854379,0.489625069316947,69.2072826719084,13.205227195994
"GMB","GM",4914,47646,47646,"loumen",17065,-15.42491833,13.571615,3,NA,NA,2015,NA,NA,0,0,0,0,0,0,1,5952,NA,NA,NA,NA,0,247,247,248,166,NA,NA,NA,NA,NA,84.6172087530222,11.7788343791283,0.665378798714587,72.8383728838805,14.7174128652255
"GMB","GM",4914,47643,47643,"loumen lower basic",16804,-15.42491833,13.571615,3,NA,NA,2015,NA,NA,50,0,50,0,50,0,1,5920,0,0,0,0,0,248,248,247,166,NA,NA,NA,NA,NA,84.6172087530222,11.7788343791283,0.665378798714587,72.8383728838805,14.7174128652255
"GMB","GM",4912,47633,47633,"lutheran lower basic",16849,-16.67444,13.4540922,1,NA,NA,2015,NA,NA,50,0,50,0,50,0,1,5831,0,0,0,0,0,249,249,113,82,NA,NA,NA,NA,NA,100,12.778896113838,1.71945622473143e-16,87.2211049296521,1.53724749199324e-14
"GMB","GM",4916,47664,47664,"madiana",16936,-16.7559004,13.3479846,1,NA,NA,2015,NA,NA,0,0,0,0,0,0,1,6151,NA,NA,NA,NA,0,250,250,251,167,NA,NA,NA,NA,NA,85.9605275429409,20.7810114287637,0.175345810986615,65.1795213429071,13.8641237387478
"GMB","GM",4916,47664,47664,"madiana lower basic",16953,-16.7559004,13.3479846,1,NA,NA,2015,NA,NA,49,0,49,0,49,0,1,6157,0,0,0,0,0,251,251,250,167,NA,NA,NA,NA,NA,85.9605275429409,20.7810114287637,0.175345810986615,65.1795213429071,13.8641237387478
"GMB","GM",4911,47629,47629,"madina",17011,-14.88028167,13.69666333,3,NA,NA,2015,NA,NA,0,0,0,0,0,0,1,5779,NA,NA,NA,NA,0,252,252,253,168,NA,NA,NA,NA,NA,88.5273783687288,17.6459116682921,0.216400576669778,70.8814666535138,11.25622071444
"GMB","GM",4911,47629,47629,"madina lower basic",17012,-14.88028167,13.69666333,3,NA,NA,2015,NA,NA,50,0,50,0,50,0,1,5780,0,0,0,0,0,253,253,252,168,NA,NA,NA,NA,NA,88.5273783687288,17.6459116682921,0.216400576669778,70.8814666535138,11.25622071444
"GMB","GM",4914,47646,47646,"maka farafenni lower basic",17066,-15.6002024,13.5722578,1,NA,NA,2015,NA,NA,50,0,50,2,50,0,1,5972,0,0.04,0,0.0377358490566037,0,254,254,94,70,17.7384103397357,17.4672776992612,4.09749484328157,0.271133392427683,1.58719868492648,91.2470311174369,13.0527681351528,0.0561256104825279,78.1942636744911,8.69684071468829
"GMB","GM",4916,47665,47665,"makumbaya",52577,-16.624807,13.329882,3,NA,NA,2010,NA,NA,48,1,48,0,48,1,1,6160,0.0208333333333333,0,0.0208333333333333,0.038898715932914,3552.03143990466,255,255,255,169,NA,NA,NA,NA,NA,84.3700431100461,41.4085433211108,0.017194327745909,42.9615001634863,15.6127619716431
"GMB","GM",4913,47639,47639,"manduar",16895,-16.0691615,13.3536116,1,NA,NA,2015,NA,NA,0,0,0,0,0,0,1,5898,NA,NA,NA,NA,0,256,256,257,170,NA,NA,NA,NA,NA,75.8184657592658,16.0747645523939,0.389801681083926,59.7437020890224,23.7917342471221
"GMB","GM",4913,47639,47639,"manduar lower basic",16896,-16.0691615,13.3536116,1,NA,NA,2015,NA,NA,50,0,50,1,50,0,1,5895,0,0.02,0,0.0188679245283018,0,257,257,256,170,NA,NA,NA,NA,NA,75.8184657592658,16.0747645523939,0.389801681083926,59.7437020890224,23.7917342471221
"GMB","GM",4916,47662,47662,"marakissa",16913,-16.6497623,13.2156281,1,NA,NA,2015,NA,NA,0,0,0,0,0,0,1,6103,NA,NA,NA,NA,0,258,258,259,171,NA,NA,NA,NA,NA,87.4272128449842,18.4428194309372,0.169742025845673,68.9843889747199,12.4030469909986
"GMB","GM",4916,47662,47662,"marakissa methodist lbs",16914,-16.6497623,13.2156281,1,NA,NA,2015,NA,NA,50,3,50,1,50,0,1,6109,0.06,0.02,0,0.0743396226415094,0,259,259,258,171,NA,NA,NA,NA,NA,87.4272128449842,18.4428194309372,0.169742025845673,68.9843889747199,12.4030469909986
"GMB","GM",4916,47664,47664,"mariama kunda",16937,-16.7264125,13.3611411,1,NA,NA,2015,NA,NA,0,0,0,0,0,0,1,6146,NA,NA,NA,NA,815.741104997316,261,261,261,173,NA,NA,NA,NA,NA,92.3203514088118,19.6337759208234,0.0796786808346288,72.6865775983797,7.5999704432278
"GMB","GM",4913,47638,47638,"massembeh",16883,-15.6419858,13.4187569,1,NA,NA,2015,NA,NA,0,0,0,0,0,0,1,5887,NA,NA,NA,NA,0,262,262,263,174,NA,NA,NA,NA,NA,90.8114347026908,17.6234747177768,0.0917198910034028,73.187959032066,9.09684652741083
"GMB","GM",4913,47638,47638,"massembeh lower basic",16884,-15.6419858,13.4187569,1,NA,NA,2015,NA,NA,50,0,50,2,50,0,1,5890,0,0.04,0,0.0377358490566037,0,263,263,262,174,NA,NA,NA,NA,NA,90.8114347026908,17.6234747177768,0.0917198910034028,73.187959032066,9.09684652741083
"GMB","GM",4916,47658,47658,"mayork",16738,-16.07696167,13.23191,3,NA,NA,2015,NA,NA,0,0,0,0,0,0,1,6073,NA,NA,NA,NA,0,264,264,265,175,NA,NA,NA,NA,NA,78.4810861100436,4.24723415912532,0.505661771266908,74.2338481679684,21.0132552784435
"GMB","GM",4916,47658,47658,"mayork lower basic school",16739,-16.07696167,13.23191,3,NA,NA,2015,NA,NA,50,0,50,0,50,0,1,6071,0,0,0,0,0,265,265,264,175,NA,NA,NA,NA,NA,78.4810861100436,4.24723415912532,0.505661771266908,74.2338481679684,21.0132552784435
"GMB","GM",4914,47644,47644,"mbamori kunda",16966,-16.0015709,13.5821203,1,NA,NA,2015,NA,NA,0,0,0,0,0,0,1,5933,NA,NA,NA,NA,0,266,266,267,176,24.850442926383,24.811836003929,17.0035928258171,0.0386068998229509,5.23907024863554,73.6477599107104,5.39263366522925,0.0607718903561431,68.2551285935837,26.291466397112
"GMB","GM",4914,47644,47644,"mbamori kunda lower basic school",16967,-16.0015709,13.5821203,1,NA,NA,2015,NA,NA,50,0,50,0,50,0,1,5924,0,0,0,0,0,267,267,266,176,24.850442926383,24.811836003929,17.0035928258171,0.0386068998229509,5.23907024863554,73.6477599107104,5.39263366522925,0.0607718903561431,68.2551285935837,26.291466397112
"GMB","GM",4914,47645,47645,"medina sering mass",52578,-16.4126147,13.4898103,1,NA,NA,2010,NA,NA,50,0,50,0,50,0,1,5935,0,0,0,0,4398.55270836605,268,268,268,177,NA,NA,NA,NA,NA,85.5727848590282,23.4661630788071,0.0200720828007225,62.1066207442052,14.4071427381578
"GMB","GM",4914,47641,47641,"minteh kunda",16726,-15.8664614,13.5698849,1,NA,NA,2015,NA,NA,0,0,0,0,0,0,1,5909,NA,NA,NA,NA,0,269,269,270,178,16.5098707039912,15.9667235267574,0.554741957682587,0.543148279588484,0.663530448111927,81.6463566782341,15.3927416188389,0.83314982129702,66.253615912818,17.5204933346884
"GMB","GM",4914,47641,47641,"minteh kunda lower basic school",16727,-15.8664614,13.5698849,1,NA,NA,2015,NA,NA,48,0,48,0,48,0,1,5908,0,0,0,0,0,270,270,269,178,16.5098707039912,15.9667235267574,0.554741957682587,0.543148279588484,0.663530448111927,81.6463566782341,15.3927416188389,0.83314982129702,66.253615912818,17.5204933346884
"GMB","GM",4913,47636,47636,"misera",16791,-15.532285,13.38311833,3,NA,NA,2015,NA,NA,0,0,0,0,0,0,1,5876,NA,NA,NA,NA,0,271,271,272,179,12.7361373387804,4.27433402054533,17.4748472534024,8.46180294719304,0.300656849915921,60.4608169442968,8.05692005794204,0.343066287852759,52.4038957160885,39.1961194614831
"GMB","GM",4913,47636,47636,"misera basic cycle",16792,-15.532285,13.38311833,3,NA,NA,2015,NA,NA,50,0,50,0,50,0,1,5873,0,0,0,0,0,272,272,271,179,12.7361373387804,4.27433402054533,17.4748472534024,8.46180294719304,0.300656849915921,60.4608169442968,8.05692005794204,0.343066287852759,52.4038957160885,39.1961194614831
"GMB","GM",4912,47633,47633,"model lower basic school",16850,-16.68253167,13.431525,3,NA,NA,2015,NA,NA,99,0,99,0,99,0,1,5835,0,0,0,0,753.549687470711,273,273,273,180,NA,NA,NA,NA,NA,99.7047574696319,14.0403677908672,0.00364823630608842,85.6643901187893,0.291593872905106
"GMB","GM",4911,47628,47628,"mount carmel",17004,-15.32133667,13.54677,3,NA,NA,2015,NA,NA,0,0,0,0,0,0,1,5766,NA,NA,NA,NA,0,274,274,275,181,NA,NA,NA,NA,NA,60.4620606966595,46.9907140877214,0.576798569627099,13.4713424004339,38.9611443487228
"GMB","GM",4911,47628,47628,"mount carmel lower basic school",17005,-15.32133667,13.54677,3,NA,NA,2015,NA,NA,49,0,49,0,49,0,1,5772,0,0,0,0,0,275,275,274,181,NA,NA,NA,NA,NA,60.4620606966595,46.9907140877214,0.576798569627099,13.4713424004339,38.9611443487228
"GMB","GM",4914,47643,47643,"munyagen",16805,-16.1772083,13.5306368,1,NA,NA,2015,NA,NA,0,0,0,0,0,0,1,5915,NA,NA,NA,NA,0,276,276,277,182,NA,NA,NA,NA,NA,91.357332120119,8.97058036203707,0.140380257206749,82.3867562582494,8.50228481087118
"GMB","GM",4914,47643,47643,"munyagen basic cycle",16806,-16.1772083,13.5306368,1,NA,NA,2015,NA,NA,49,0,49,0,49,0,1,5918,0,0,0,0,0,277,277,276,182,NA,NA,NA,NA,NA,91.357332120119,8.97058036203707,0.140380257206749,82.3867562582494,8.50228481087118
"GMB","GM",4915,47655,47655,"mure kunda",17087,-14.0485109,13.4753338,3,NA,NA,2015,NA,NA,0,0,0,0,0,0,1,6048,NA,NA,NA,NA,0,278,278,279,183,NA,NA,NA,NA,NA,97.2011689403271,4.62713761703365,0.0350397965353422,92.5740338584563,2.76379111621817
"GMB","GM",4915,47654,47654,"mure kunda lower basic school",17100,-14.0485109,13.4753338,3,NA,NA,2015,NA,NA,50,1,50,0,50,0,1,6037,0.02,0,0,0.0188679245283018,0,279,279,278,183,NA,NA,NA,NA,NA,97.2011689403271,4.62713761703365,0.0350397965353422,92.5740338584563,2.76379111621817
"GMB","GM",4915,47648,47648,"nafugan",52553,-14.283333,13.333333,1,NA,NA,2005,NA,NA,30,0,30,0,30,0,2,5978,0,0,0,0,5596.47273111154,280,280,280,184,NA,NA,NA,NA,NA,75.714537694443,28.6141224292229,0.0156905725090489,47.1004181264469,24.2697689816301
"GMB","GM",4915,47650,47650,"nawdeh",52561,-14.451626,13.337142,3,NA,NA,2005,NA,NA,30,0,30,0,30,0,2,5993,0,0,0,0,4409.91071278487,281,281,281,185,NA,NA,NA,NA,NA,78.0423306659237,30.0972277664236,0.0178499199323051,47.9451034143265,21.9398204652002
"GMB","GM",4914,47645,47645,"ndofan",16978,-16.4339618,13.5296513,1,NA,NA,2015,NA,NA,48,0,48,0,48,0,1,5947,0,0,0,0,4922.78529628024,282,282,282,186,NA,NA,NA,NA,NA,93.5700645340896,15.0508705137745,0.110936498464398,78.519192282315,6.31900125196022
"GMB","GM",4912,47633,47633,"ndows comprehension lbs",16851,-16.67451167,13.455885,3,NA,NA,2015,NA,NA,50,0,50,0,50,0,1,5832,0,0,0,0,150.301003983987,283,283,283,187,NA,NA,NA,NA,NA,100,14.1592089114808,1.90523234795323e-16,85.8407922476423,1.7033280136905e-14
"GMB","GM",4912,47633,47633,"ndows comprehensive lbs (1)",16852,-16.67499,13.45727833,3,NA,NA,2015,NA,NA,50,0,50,1,50,0,1,5842,0,0.02,0,0.0188679245283018,92.7366418062537,284,284,284,188,NA,NA,NA,NA,NA,100,15.2299844912693,2.04966550076416e-16,84.77001677648,1.83238953861528e-14
"GMB","GM",4914,47645,47645,"ndungu charren",16979,-16.353575,13.55881167,3,NA,NA,2015,NA,NA,0,0,0,0,0,0,1,5936,NA,NA,NA,NA,0,285,285,296,189,NA,NA,NA,NA,NA,99.1068017902734,33.7891945865934,0.0165648130303333,65.3176033960216,0.87663351354745
"GMB","GM",4914,47645,47645,"ndungu kebbeh",16980,-16.3198908,13.5393781,1,NA,NA,2015,NA,NA,0,0,0,0,0,0,1,5946,NA,NA,NA,NA,0,286,286,287,190,NA,NA,NA,NA,NA,87.7476485671803,26.4219298582996,0.187469192879666,61.3257175051118,12.0648829269
"GMB","GM",4914,47645,47645,"ndungu kebbeh basic cycle school",16981,-16.3198908,13.5393781,1,NA,NA,2015,NA,NA,50,0,50,0,50,0,1,5934,0,0,0,0,0,287,287,286,190,NA,NA,NA,NA,NA,87.7476485671803,26.4219298582996,0.187469192879666,61.3257175051118,12.0648829269
"GMB","GM",4913,47637,47637,"nema kuta",16875,-15.6947787,13.4182185,1,NA,NA,2015,NA,NA,0,0,0,0,0,0,1,5881,NA,NA,NA,NA,0,288,288,289,191,NA,NA,NA,NA,NA,82.1800077539585,27.0387542440217,0.283288110858299,55.1412547196528,17.5367032681281
"GMB","GM",4913,47637,47637,"nema kuta basic cycle school",16876,-15.6947787,13.4182185,1,NA,NA,2015,NA,NA,50,0,50,1,50,0,1,5879,0,0.02,0,0.0188679245283018,0,289,289,288,191,NA,NA,NA,NA,NA,82.1800077539585,27.0387542440217,0.283288110858299,55.1412547196528,17.5367032681281
"GMB","GM",4912,47633,47633,"new jeshwang",16853,-16.66943167,13.44151,3,NA,NA,2015,NA,NA,50,0,50,1,50,0,1,5820,0,0.02,0,0.0188679245283018,0,290,290,291,192,NA,NA,NA,NA,NA,100,3.0941186531417,4.15579834350838e-17,96.905881554987,3.71680487216881e-15
"GMB","GM",4912,47633,47633,"new jeshwang",52563,-16.66943167,13.44151,3,NA,NA,2010,NA,NA,50,0,50,0,50,0,1,5822,0,0,0,0,0,291,291,290,192,NA,NA,NA,NA,NA,99.3161760363404,4.74589263909952,0.000310715940033773,94.5702831997724,0.683513321748921
"GMB","GM",4912,47633,47633,"new jeswang",16854,-16.66414995,13.44359049,3,NA,NA,2015,NA,NA,0,0,0,0,0,0,1,5847,NA,NA,NA,NA,199.739100983683,292,292,292,193,NA,NA,NA,NA,NA,100,4.70614968603372,6.30901247935668e-17,95.2938505593251,5.64479563498259e-15
"GMB","GM",4912,47633,47633,"new life primary",16855,-16.67417667,13.44993333,3,NA,NA,2015,NA,NA,50,0,50,0,50,0,1,5849,0,0,0,0,476.924658232085,293,293,293,194,NA,NA,NA,NA,NA,100,9.57694880693884,1.28849845002455e-16,90.4230519678319,1.15198047893751e-14
"GMB","GM",4914,47646,47646,"ngerr",17067,-15.6493172,13.5880793,1,NA,NA,2015,NA,NA,0,0,0,0,0,0,1,5951,NA,NA,NA,NA,202.205708718678,294,294,294,195,36.67952110139,31.734995513222,19.2951059269103,4.94452665036273,5.42007723918323,96.0537968560063,7.08228219740155,0.0433387996157138,88.9715179888718,3.90286502566047
"GMB","GM",4914,47646,47646,"ngerr lower basic school",17068,-15.64754167,13.58770667,3,NA,NA,2015,NA,NA,50,0,50,0,50,0,1,5954,0,0,0,0,202.205708718678,295,295,295,196,36.286233102599,31.1877676360967,18.9830649812337,5.09846656767985,5.23109421759008,96.2333677830889,7.05856363594884,0.0371333493106625,89.1748077368983,3.72949944065618
"GMB","GM",4914,47645,47645,"ngungu charren lower basic school",16982,-16.353575,13.55881167,3,NA,NA,2015,NA,NA,50,0,50,0,50,0,1,5940,0,0,0,0,0,296,296,285,189,NA,NA,NA,NA,NA,99.1068017902734,33.7891945865934,0.0165648130303333,65.3176033960216,0.87663351354745
"GMB","GM",4915,47652,47652,"niankui lbs",52588,-14.476531,13.428578,1,NA,NA,2010,NA,NA,50,0,50,0,50,0,1,6013,0,0,0,0,233.393895167814,297,297,297,197,NA,NA,NA,NA,NA,67.9503663086428,18.0432888250883,0.119024768490061,49.907075957911,31.9306106115616
"GMB","GM",4913,47639,47639,"nioro jattaba",16897,-15.83048333,13.292865,3,NA,NA,2015,NA,NA,0,0,0,0,0,0,1,5897,NA,NA,NA,NA,0,298,298,299,198,NA,NA,NA,NA,NA,75.661967132519,11.7324640149287,0.95146859482994,63.9295029135317,23.3865654697023
"GMB","GM",4913,47639,47639,"nioro jattaba lower basic school",16898,-15.83048333,13.292865,3,NA,NA,2015,NA,NA,49,0,49,0,49,0,1,5900,0,0,0,0,0,299,299,298,198,NA,NA,NA,NA,NA,75.661967132519,11.7324640149287,0.95146859482994,63.9295029135317,23.3865654697023
"GMB","GM",4914,47644,47644,"njawara",16968,-16.0801839,13.5762608,1,NA,NA,2015,NA,NA,0,0,0,0,0,0,1,5930,NA,NA,NA,NA,0,300,300,301,199,17.3340998392916,16.4195972827514,10.9928981641819,0.91450196013622,4.70330664501413,92.8954112747151,14.7575796756891,0.0215585117230894,78.1378336838321,7.08302926255927
"GMB","GM",4914,47644,47644,"njawara lower basic school",16969,-16.0801839,13.5762608,1,NA,NA,2015,NA,NA,49,0,49,0,49,0,1,5926,0,0,0,0,0,301,301,300,199,17.3340998392916,16.4195972827514,10.9928981641819,0.91450196013622,4.70330664501413,92.8954112747151,14.7575796756891,0.0215585117230894,78.1378336838321,7.08302926255927
"GMB","GM",4915,47653,47653,"njayel",17049,-14.02061,13.33473,3,NA,NA,2015,NA,NA,0,0,0,0,0,0,1,6014,NA,NA,NA,NA,0,302,302,303,200,NA,NA,NA,NA,NA,81.6679104811961,21.8779225337685,0.291761586646958,59.7899859274829,18.0403282177636
"GMB","GM",4915,47653,47653,"njayel lower basic school",17050,-14.02061,13.33473,3,NA,NA,2015,NA,NA,49,0,49,3,49,0,1,6020,0,0.0612244897959183,0,0.0577589526376588,0,303,303,302,200,NA,NA,NA,NA,NA,81.6679104811961,21.8779225337685,0.291761586646958,59.7899859274829,18.0403282177636
"GMB","GM",4914,47645,47645,"njogon village",16983,-16.47812833,13.53180667,3,NA,NA,2015,NA,NA,0,0,0,0,0,0,1,5945,NA,NA,NA,NA,0,304,304,386,201,NA,NA,NA,NA,NA,84.2015937308266,17.3821758736899,0.173571109331378,66.8194195633618,15.6248368315614
"GMB","GM",4911,47623,47623,"njoren basic cycle school",16771,-14.636084,13.34641,1,NA,NA,2015,NA,NA,50,1,50,0,50,0,1,5738,0.02,0,0,0.0188679245283018,0,305,305,306,202,11.5045335267063,11.3957823071015,4.16321164965047,0.108751032615967,2.94389088406196,66.5459335272434,18.3756133604224,0.407492033283684,48.1703177898507,33.0465756933138
"GMB","GM",4911,47623,47623,"njoren village",16772,-14.636084,13.34641,1,NA,NA,2015,NA,NA,0,0,0,0,0,0,1,5739,NA,NA,NA,NA,0,306,306,305,202,11.5045335267063,11.3957823071015,4.16321164965047,0.108751032615967,2.94389088406196,66.5459335272434,18.3756133604224,0.407492033283684,48.1703177898507,33.0465756933138
"GMB","GM",4911,47629,47629,"nyanga bantang",17013,-15.006815,13.784355,3,NA,NA,2015,NA,NA,0,0,0,0,0,0,1,5781,NA,NA,NA,NA,0,307,307,308,203,23.2379875183105,21.3380794525146,20.3944873809814,1.89990890026093,6.36752414703369,77.8737611175875,25.0020971037005,0.311368174125964,52.871664391929,21.8148690831618
"GMB","GM",4911,47629,47629,"nyanga bantang basic cycle",17014,-15.006815,13.784355,3,NA,NA,2015,NA,NA,50,0,50,0,50,0,1,5783,0,0,0,0,0,308,308,307,203,23.2379875183105,21.3380794525146,20.3944873809814,1.89990890026093,6.36752414703369,77.8737611175875,25.0020971037005,0.311368174125964,52.871664391929,21.8148690831618
"GMB","GM",4915,47652,47652,"nyankui",52589,-14.476567,13.426539,3,NA,NA,2005,NA,NA,30,0,30,1,30,0,2,6008,0,0.0333333333333333,0,0.0314465408805031,233.393895167814,309,309,309,204,NA,NA,NA,NA,NA,68.2123265634739,19.0345501709304,0.0215960197268691,49.1777738928325,31.7660788296695
"GMB","GM",4912,47633,47633,"old jeshwang",16856,-16.6615529,13.4604792,1,NA,NA,2015,NA,NA,0,0,0,0,0,0,1,5828,NA,NA,NA,NA,513.779632072061,310,310,310,205,NA,NA,NA,NA,NA,100,17.7660544311905,2.3794846858995e-16,82.2339463631971,2.1293846165835e-14
"GMB","GM",4916,47664,47664,"old yundum",16938,-16.682188,13.366917,1,NA,NA,2015,NA,NA,0,0,0,0,0,0,1,6149,NA,NA,NA,NA,147.746332712042,311,311,311,206,NA,NA,NA,NA,NA,96.9461002286232,36.3777361921958,0.0691725537132848,60.5683649670426,2.98472618774189
"GMB","GM",4916,47664,47664,"old yundum lower basic",16954,-16.6821609,13.368208,1,NA,NA,2015,NA,NA,49,1,49,0,49,0,1,6143,0.0204081632653061,0,0,0.0192529842125529,147.746332712042,312,312,312,207,NA,NA,NA,NA,NA,96.9687052070535,39.1477630397659,0.067643206968864,57.8209431913526,2.96365047039788
"GMB","GM",4911,47623,47623,"pacharr",16773,-14.85553,13.49913667,3,NA,NA,2015,NA,NA,0,0,0,0,0,0,1,5733,NA,NA,NA,NA,0,313,313,314,208,NA,NA,NA,NA,NA,77.8080012635946,16.4886612449614,0.300829322273995,61.3193413987322,21.8911692116364
"GMB","GM",4911,47623,47623,"pacharr lower basic school",16774,-14.85553,13.49913667,3,NA,NA,2015,NA,NA,48,0,48,0,48,0,1,5732,0,0,0,0,0,314,314,313,208,NA,NA,NA,NA,NA,77.8080012635946,16.4886612449614,0.300829322273995,61.3193413987322,21.8911692116364
"GMB","GM",4913,47636,47636,"pakalinding",16793,-15.5489028,13.4618036,1,NA,NA,2015,NA,NA,0,0,0,0,0,0,1,5875,NA,NA,NA,NA,0,315,315,316,209,NA,NA,NA,NA,NA,98.4925966824848,6.08045731529556,0.0158328742894548,92.4121379300379,1.49157051921081
"GMB","GM",4913,47636,47636,"pakalinding lower basic school",16794,-15.5489028,13.4618036,1,NA,NA,2015,NA,NA,50,0,50,0,50,0,1,5871,0,0,0,0,0,316,316,315,209,NA,NA,NA,NA,NA,98.4925966824848,6.08045731529556,0.0158328742894548,92.4121379300379,1.49157051921081
"GMB","GM",4911,47630,47630,"paleleh",17019,-15.13139333,13.74913167,3,NA,NA,2015,NA,NA,0,0,0,0,0,0,1,5784,NA,NA,NA,NA,0,317,317,318,210,NA,NA,NA,NA,NA,87.7416852642102,23.5382307697988,0.335926734666429,64.2034557094027,11.9223870852316
"GMB","GM",4911,47630,47630,"paleleh lower basic",17020,-15.13139333,13.74913167,3,NA,NA,2015,NA,NA,50,0,50,0,50,0,1,5787,0,0,0,0,0,318,318,317,210,NA,NA,NA,NA,NA,87.7416852642102,23.5382307697988,0.335926734666429,64.2034557094027,11.9223870852316
"GMB","GM",4914,47646,47646,"pallen fula",17069,-15.439896,13.583007,1,NA,NA,2015,NA,NA,0,0,0,0,0,0,1,5958,NA,NA,NA,NA,1461.3690482101,319,319,319,211,48.1125297546387,43.5740966796875,1.19908809661865,4.53843641281128,0.688381612300873,87.4126224505986,9.40949230497247,0.479306566980828,78.0031291770971,12.1080711059702
"GMB","GM",4914,47643,47643,"pallen fula lower basic school",16807,-15.439775,13.57024667,3,NA,NA,2015,NA,NA,50,0,50,0,50,0,1,5917,0,0,0,0,1461.3690482101,320,320,320,212,48.1125297546387,43.5740966796875,1.19908809661865,4.53843641281128,0.688381612300873,80.7078912028803,14.5917886001325,0.765170243541459,66.1161010500973,18.5269387180376
"GMB","GM",4911,47629,47629,"pallol lower bases school",17015,-14.866268,13.766006,1,NA,NA,2015,NA,NA,44,1,44,3,44,0,1,5776,0.0227272727272727,0.0681818181818181,0,0.0843014189926711,0,321,321,322,213,NA,NA,NA,NA,NA,77.9375625501824,21.5206330947505,0.260481254042483,56.4169301666333,21.8019545129255
"GMB","GM",4911,47629,47629,"pallol village",17016,-14.866268,13.766006,1,NA,NA,2015,NA,NA,0,0,0,0,0,0,1,5774,NA,NA,NA,NA,0,322,322,321,213,NA,NA,NA,NA,NA,77.9375625501824,21.5206330947505,0.260481254042483,56.4169301666333,21.8019545129255
"GMB","GM",4915,47654,47654,"perai mamadi",17101,-14.0311791,13.3813713,1,NA,NA,2015,NA,NA,0,0,0,0,0,0,1,6038,NA,NA,NA,NA,0,323,323,324,214,NA,NA,NA,NA,NA,76.7372825638618,14.4134227980847,0.229100391116748,62.323859905595,23.0336158001899
"GMB","GM",4915,47654,47654,"perai mamadi",52597,-14.0311791,13.3813713,1,NA,NA,2005,NA,NA,30,0,30,0,30,0,2,6036,0,0,0,0,0,324,324,323,214,NA,NA,NA,NA,NA,70.450563111064,19.2952624045931,0.00399246860358465,51.1553008352829,29.545444927236
"GMB","GM",4915,47654,47654,"perai mamadi lower basic school",17102,-14.25027167,13.38333667,3,NA,NA,2015,NA,NA,49,0,49,0,49,0,1,6035,0,0,0,0,3696.70404757076,325,325,325,215,NA,NA,NA,NA,NA,86.9535889364178,30.0363698553373,0.26972641273777,56.9172207401776,12.7766844839164
"GMB","GM",4916,47663,47663,"pirang",16924,-16.5341014,13.2714395,1,NA,NA,2015,NA,NA,0,0,0,0,0,0,1,6120,NA,NA,NA,NA,0,326,326,327,216,NA,NA,NA,NA,NA,142.223633759341,7.41336819609561,0.0629758917832978,134.810265396517,6.25423613735561
"GMB","GM",4916,47663,47663,"pirang lower basic school",16925,-16.5341014,13.2714395,1,NA,NA,2015,NA,NA,50,0,50,1,50,0,1,6117,0,0.02,0,0.0188679245283018,0,327,327,326,216,NA,NA,NA,NA,NA,142.223633759341,7.41336819609561,0.0629758917832978,134.810265396517,6.25423613735561
"GMB","GM",4911,47631,47631,"raneru",17037,-14.54621333,13.62318167,3,NA,NA,2015,NA,NA,0,0,0,0,0,0,1,5809,NA,NA,NA,NA,0,328,328,329,217,25.9011745452881,22.7995204925537,16.3849544525146,3.10165333747864,7.71387147903442,76.3732307749706,22.7103387254314,0.964880682190464,53.6628914658236,22.6618890040486
"GMB","GM",4911,47631,47631,"raneru lower basic school",17038,-14.54621333,13.62318167,3,NA,NA,2015,NA,NA,51,0,51,0,51,0,1,5797,0,0,0,0,0,329,329,328,217,25.9011745452881,22.7995204925537,16.3849544525146,3.10165333747864,7.71387147903442,76.3732307749706,22.7103387254314,0.964880682190464,53.6628914658236,22.6618890040486
"GMB","GM",4914,47644,47644,"saaba",16970,-16.0500574,13.5200774,1,NA,NA,2015,NA,NA,0,0,0,0,0,0,1,5931,NA,NA,NA,NA,49.4960177793626,330,330,330,218,NA,NA,NA,NA,NA,99.278917098544,0.00215970786448561,0.00500724230210508,99.2767574236662,0.716075653038047
"GMB","GM",4914,47644,47644,"saaba lower basic cycle",16971,-16.05050167,13.52006,3,NA,NA,2015,NA,NA,50,0,50,0,50,0,1,5925,0,0,0,0,49.4960177793626,331,331,331,219,NA,NA,NA,NA,NA,99.2625622445745,0.00213056863896097,0.00508906768060259,99.2604317084772,0.732348681879222
"GMB","GM",4915,47648,47648,"sabi",52554,-14.1959978,13.2375414,1,NA,NA,2005,NA,NA,30,0,30,1,30,0,2,5976,0,0.0333333333333333,0,0.0314465408805031,3902.60445299007,332,332,332,220,NA,NA,NA,NA,NA,73.3933431886715,20.7203770491933,0.0239201632859602,52.6729674944852,26.5827318178333
"GMB","GM",4914,47641,47641,"sali keni",52555,-15.966128,13.483927,3,NA,NA,2010,NA,NA,50,0,50,0,50,0,1,5907,0,0,0,0,10218.5853172363,333,333,333,221,NA,NA,NA,NA,NA,48.6056822571882,44.315161772218,0.0689890700118685,4.29052036282216,51.3253280247181
"GMB","GM",4911,47631,47631,"sami karanta lower basic school",17039,-14.55922667,13.56749333,3,NA,NA,2015,NA,NA,50,0,50,0,50,0,1,5806,0,0,0,0,358.418530537855,334,334,334,222,NA,NA,NA,NA,NA,86.0911061042557,14.8674997101562,1.54307446587477,71.2236050675384,12.3658201402516
"GMB","GM",4911,47631,47631,"sami karantaba",17040,-14.5611573,13.5699981,1,NA,NA,2015,NA,NA,0,0,0,0,0,0,1,5808,NA,NA,NA,NA,358.418530537855,335,335,335,223,NA,NA,NA,NA,NA,86.1248795269356,15.3512562929693,1.54367556155399,70.7736217622682,12.3314456979511
"GMB","GM",4916,47661,47661,"sangajor",16759,-16.0419754,13.2287944,1,NA,NA,2015,NA,NA,0,0,0,0,0,0,1,6092,NA,NA,NA,NA,0,336,336,337,224,NA,NA,NA,NA,NA,91.3572306472007,14.5508529486826,0.416454317786005,76.8063762256406,8.22631639571212
"GMB","GM",4916,47661,47661,"sangajor lower basic school",16760,-16.0419754,13.2287944,1,NA,NA,2015,NA,NA,50,0,50,0,50,0,1,6087,0,0,0,0,0,337,337,336,224,NA,NA,NA,NA,NA,91.3572306472007,14.5508529486826,0.416454317786005,76.8063762256406,8.22631639571212
"GMB","GM",4916,47664,47664,"sanneh mentereng",16955,-16.766675,13.38449667,3,NA,NA,2015,NA,NA,50,0,50,0,50,0,1,6147,0,0,0,0,98.0958352832971,338,338,338,225,NA,NA,NA,NA,NA,82.3174334349919,22.9211533867408,0.448639845558201,59.3962828563017,17.2339254949457
"GMB","GM",4911,47623,47623,"sare a dou lower basic school",16775,-14.99514,13.50052333,3,NA,NA,2015,NA,NA,51,0,51,0,51,0,1,5748,0,0,0,0,1315.71401648303,339,339,339,226,23.7973526098866,20.7990054216869,18.0779026513346,2.99834604514378,6.86437583849019,60.3844659757897,27.8518531179792,0.756991890501071,32.5326123152808,38.8585436374423
"GMB","GM",4911,47623,47623,"sare abdou",16776,-14.983333,13.5,1,NA,NA,2015,NA,NA,0,0,0,0,0,0,1,5745,NA,NA,NA,NA,1315.71401648303,340,340,340,227,24.7811901573262,21.5247069482619,17.9626589593617,3.25648237432386,7.25177350832858,60.3638636817516,28.1175744495078,0.535623587960021,32.2462887551311,39.1005137560501
"GMB","GM",4915,47653,47653,"sare alpha",17051,-13.9803931,13.3602498,1,NA,NA,2015,NA,NA,0,0,0,0,0,0,1,6017,NA,NA,NA,NA,0,341,341,342,228,NA,NA,NA,NA,NA,71.7975570053726,24.4524096812299,0.231699463528749,47.3451496391335,27.9707425949521
"GMB","GM",4915,47653,47653,"sare alpha lower basic school",17052,-13.9803931,13.3602498,1,NA,NA,2015,NA,NA,53,0,53,3,53,0,1,6015,0,0.0566037735849056,0,0.0533997864008543,0,342,342,341,228,NA,NA,NA,NA,NA,71.7975570053726,24.4524096812299,0.231699463528749,47.3451496391335,27.9707425949521
"GMB","GM",4915,47649,47649,"sare bojo",52557,-14.524027,13.323698,1,NA,NA,2005,NA,NA,31,1,31,0,31,0,2,5981,0.032258064516129,0,0,0.0304321363359707,8205.0800108342,343,343,343,229,30.2216666692622,29.0226764575916,25.2465354163654,1.19899407360895,17.652235229383,30.7578412098667,16.5948845165025,0.215930280235312,14.1629561840196,69.0262288710385
"GMB","GM",4915,47650,47650,"sare n'jobo lower basic",16815,-14.44371167,13.29367167,3,NA,NA,2015,NA,NA,50,0,50,0,50,0,1,5984,0,0,0,0,0,344,344,351,230,26.565119457049,26.4981776071583,9.1821789674458,0.0669440900823835,9.43633468037492,49.1869230338383,14.6425592477244,0.239112306571138,34.5443620324105,50.5739667233729
"GMB","GM",4915,47655,47655,"sarkoli kunda",17088,-13.89056667,13.54723333,3,NA,NA,2015,NA,NA,0,0,0,0,0,0,1,6045,NA,NA,NA,NA,0,345,345,346,231,62.0038394921738,50.9559764044673,37.6260663353026,11.0478650726179,13.7344657549307,64.7912913022093,26.9498434884102,0.27674784075965,37.841446998127,34.9319612835451
"GMB","GM",4915,47655,47655,"sarkoli kunda lower basic school",17089,-13.89056667,13.54723333,3,NA,NA,2015,NA,NA,50,1,50,1,50,0,1,6042,0.02,0.02,0,0.0373584905660377,0,346,346,345,231,62.0038394921738,50.9559764044673,37.6260663353026,11.0478650726179,13.7344657549307,64.7912913022093,26.9498434884102,0.27674784075965,37.841446998127,34.9319612835451
"GMB","GM",4916,47664,47664,"scanaid lbs",16956,-16.74650333,13.37329333,3,NA,NA,2015,NA,NA,50,3,50,13,50,0,1,6140,0.06,0.26,0,0.287169811320755,896.508530211255,347,347,347,232,NA,NA,NA,NA,NA,86.7701293206729,21.2270547419966,0.241131395668314,65.5430763327396,12.9887392488719
"GMB","GM",4912,47633,47633,"serekunda london",16857,-16.6880841,13.4502991,1,NA,NA,2015,NA,NA,0,0,0,0,0,0,1,5844,NA,NA,NA,NA,0,348,348,349,233,NA,NA,NA,NA,NA,99.9927967389465,9.85290121504543,7.83298301838926e-05,90.1398966958605,0.00712492307326109
"GMB","GM",4912,47633,47633,"serrekunda",16858,-16.6880841,13.4502991,1,NA,NA,2015,NA,NA,49,0,49,0,49,0,1,5817,0,0,0,0,0,349,349,348,233,NA,NA,NA,NA,NA,99.9927967389465,9.85290121504543,7.83298301838926e-05,90.1398966958605,0.00712492307326109
"GMB","GM",4912,47633,47633,"seventh day adventist",16859,-16.66593167,13.44379667,3,NA,NA,2015,NA,NA,50,0,50,3,50,0,1,5824,0,0.06,0,0.0566037735849056,199.739100983683,350,350,350,234,NA,NA,NA,NA,NA,100,4.86281920514381,6.5232030469103e-17,95.1371810731767,5.83565840962412e-15
"GMB","GM",4915,47650,47650,"share n' jobo",16816,-14.44371167,13.29367167,3,NA,NA,2015,NA,NA,0,0,0,0,0,0,1,5985,NA,NA,NA,NA,0,351,351,344,230,26.565119457049,26.4981776071583,9.1821789674458,0.0669440900823835,9.43633468037492,49.1869230338383,14.6425592477244,0.239112306571138,34.5443620324105,50.5739667233729
"GMB","GM",4913,47637,47637,"sibito",52570,-15.7314496,13.3794498,1,NA,NA,2010,NA,NA,50,1,50,1,50,0,1,5884,0.02,0.02,0,0.0373584905660377,0,352,352,353,235,NA,NA,NA,NA,NA,83.5972570463974,28.7549768971876,0.0301182439287265,54.8422757947634,16.3726278300205
"GMB","GM",4913,47637,47637,"sibito",16877,-15.7314496,13.3794498,1,NA,NA,2015,NA,NA,0,0,0,0,0,0,1,5886,NA,NA,NA,NA,0,353,353,352,235,NA,NA,NA,NA,NA,88.6191852946597,19.5567087459229,0.254003733336309,69.0624788280301,11.1268089890686
"GMB","GM",4913,47637,47637,"sibito lower basic school",16878,-15.7314496,13.3794498,1,NA,NA,2015,NA,NA,50,0,50,0,50,0,1,5882,0,0,0,0,0,354,354,352,235,NA,NA,NA,NA,NA,88.6191852946597,19.5567087459229,0.254003733336309,69.0624788280301,11.1268089890686
"GMB","GM",4916,47664,47664,"sinchu baliya",16939,-16.67963667,13.39526167,3,NA,NA,2015,NA,NA,0,0,0,0,0,0,1,6137,NA,NA,NA,NA,0,355,355,356,236,NA,NA,NA,NA,NA,96.7131298281867,95.6030837444346,0.0415327584059691,1.11004887247537,3.24533453179537
"GMB","GM",4916,47664,47664,"sinchu baliya lower basic",16957,-16.67963667,13.39526167,3,NA,NA,2015,NA,NA,50,0,50,1,50,0,1,6132,0,0.02,0,0.0188679245283018,0,356,356,355,236,NA,NA,NA,NA,NA,96.7131298281867,95.6030837444346,0.0415327584059691,1.11004887247537,3.24533453179537
"GMB","GM",4911,47627,47627,"sinchu gundo",16998,-15.03328167,13.61319167,3,NA,NA,2015,NA,NA,0,0,0,0,0,0,1,5753,NA,NA,NA,NA,0,357,357,358,237,NA,NA,NA,NA,NA,84.6645841694689,16.0098849674272,1.29863116608228,68.6547011394855,14.0367841249451
"GMB","GM",4911,47627,47627,"sinchu gundo lower basic school",16999,-15.03328167,13.61319167,3,NA,NA,2015,NA,NA,48,0,48,0,48,0,1,5763,0,0,0,0,0,358,358,357,237,NA,NA,NA,NA,NA,84.6645841694689,16.0098849674272,1.29863116608228,68.6547011394855,14.0367841249451
"GMB","GM",4914,47646,47646,"sinchu njabo",17070,-15.41209833,13.54538333,3,NA,NA,2015,NA,NA,0,0,0,0,0,0,1,5959,NA,NA,NA,NA,0,359,359,360,238,NA,NA,NA,NA,NA,81.8967896794206,16.8279141088635,0.812601292310971,65.0688750587916,17.2906093160754
"GMB","GM",4914,47643,47643,"sinchu njabo lower basic cycle",16808,-15.41209833,13.54538333,3,NA,NA,2015,NA,NA,49,0,49,0,49,0,1,5921,0,0,0,0,0,360,360,359,238,NA,NA,NA,NA,NA,81.8967896794206,16.8279141088635,0.812601292310971,65.0688750587916,17.2906093160754
"GMB","GM",4913,47634,47634,"sitta huma",52559,-15.397386,13.413016,3,NA,NA,2010,NA,NA,50,4,50,0,50,0,1,5863,0.08,0,0,0.0754716981132075,2625.77395696938,361,361,361,239,NA,NA,NA,NA,NA,74.3716675798138,24.3797528733916,0.0418133037923533,49.9919162099655,25.5865188756724
"GMB","GM",4911,47628,47628,"sofaniama",17006,-15.2872,13.54892,3,NA,NA,2015,NA,NA,50,0,50,0,50,0,1,5769,0,0,0,0,3808.04296254761,362,362,362,240,NA,NA,NA,NA,NA,75.9457966548393,31.3684254694719,0.296860201890411,44.5773699372887,23.75734515192
"GMB","GM",4916,47663,47663,"sohm",16926,-16.4921253,13.1828242,1,NA,NA,2015,NA,NA,0,0,0,0,0,0,1,6125,NA,NA,NA,NA,296.88082198099,363,363,363,241,8.47230734819334,6.63313792623846,1.5309893448877,1.83916934120841,1.21427480394734,78.9836982984698,27.8930798874848,0.132000945080663,51.0906196974605,20.884302234943
"GMB","GM",4916,47663,47663,"sohm lower basic school",16927,-16.49137167,13.185315,3,NA,NA,2015,NA,NA,50,0,50,3,50,0,1,6115,0,0.06,0,0.0566037735849056,296.88082198099,364,364,364,242,3.94162253928945,3.0863524588565,0.723740050672458,0.85527003910163,0.574288490934276,83.5818875197113,29.3584700643476,0.130224624160772,54.2234189540004,16.287889253866
"GMB","GM",4911,47623,47623,"sololo",16777,-14.6791893,13.4517208,1,NA,NA,2015,NA,NA,0,0,0,0,0,0,1,5742,NA,NA,NA,NA,0,365,365,366,243,NA,NA,NA,NA,NA,91.6289433876111,12.9620032584934,0.32241172640927,78.6669403851063,8.04864525289577
"GMB","GM",4911,47623,47623,"sololo basic cycle school",16778,-14.6791893,13.4517208,1,NA,NA,2015,NA,NA,48,0,48,0,48,0,1,5746,0,0,0,0,0,366,366,365,243,NA,NA,NA,NA,NA,91.6289433876111,12.9620032584934,0.32241172640927,78.6669403851063,8.04864525289577
"GMB","GM",4913,47636,47636,"soma",16795,-15.5386447,13.4442078,1,NA,NA,2015,NA,NA,0,0,0,0,0,0,1,5877,NA,NA,NA,NA,0,367,367,368,244,NA,NA,NA,NA,NA,99.7358818240403,1.41203643474571,0.0027741556569622,98.3238453049918,0.26134472663248
"GMB","GM",4913,47636,47636,"soma lower basic",16796,-15.5386447,13.4442078,1,NA,NA,2015,NA,NA,50,0,50,0,50,0,1,5874,0,0,0,0,0,368,368,367,244,NA,NA,NA,NA,NA,99.7358818240403,1.41203643474571,0.0027741556569622,98.3238453049918,0.26134472663248
"GMB","GM",4916,47659,47659,"somita",16744,-16.3037052,13.2063104,1,NA,NA,2015,NA,NA,0,0,0,0,0,0,1,6075,NA,NA,NA,NA,0,369,369,370,245,NA,NA,NA,NA,NA,48.9988983551575,8.20465891492903,1.32719696049013,40.794235383729,49.6739050369636
"GMB","GM",4916,47659,47659,"somita basic cycle",16745,-16.3037052,13.2063104,1,NA,NA,2015,NA,NA,50,0,50,0,50,0,1,6078,0,0,0,0,0,370,370,369,245,NA,NA,NA,NA,NA,48.9988983551575,8.20465891492903,1.32719696049013,40.794235383729,49.6739050369636
"GMB","GM",4915,47651,47651,"songkunda",52567,-13.8491615,13.3767317,1,NA,NA,2005,NA,NA,31,0,31,0,31,0,2,6003,0,0,0,0,5407.45989212155,371,371,371,246,24.2454776763916,20.2839946746826,16.0226287841797,3.96148443222046,9.73189163208008,78.128329473304,29.4813515417275,0.0124002391198498,48.6469821111347,21.8592675625707
"GMB","GM",4911,47627,47627,"sotokoi",52579,-15.1076233,13.6446628,1,NA,NA,2010,NA,NA,50,8,50,0,50,2,1,5754,0.16,0,0.04,0.182641509433962,0,372,372,373,247,NA,NA,NA,NA,NA,59.2210399173906,45.7116356231514,0.421914114029974,13.5094032812308,40.3570465535528
"GMB","GM",4911,47627,47627,"sotokoi lbs",52580,-15.1076233,13.6446628,1,NA,NA,2010,NA,NA,51,0,51,0,51,0,1,5761,0,0,0,0,0,373,373,372,247,NA,NA,NA,NA,NA,59.2210399173906,45.7116356231514,0.421914114029974,13.5094032812308,40.3570465535528
